Customer Name,Region,City,Customer Size,Customer Satisfaction (%),Engagement (%),Retention Success (%),Security Rating,Annual Purchase Capacity,Lead Volume,Products Purchased,Add-on Programs,Latitude,Longitude
The Urban Assembly School for Media Studies,MANHATTAN,Lincoln Square,397,77,84,54,92,90.0,349.0,"AP English Language and Composition, AP English Literature and Composition, AP Environmental Science, AP United States History","Basketball, Cheerleading",40.77435,-73.98475
York Early College Academy,QUEENS   ,South Jamaica,646,99,95,94,93,68.0,1203.0,"AP United States History, AP World History: Modern",,40.69718,-73.78719
Bronx Academy for Software Engineering (BASE),BRONX    ,Belmont,426,78,88,0,82,85.0,1316.0,"AP Computer Science A, AP Computer Science Principles, AP English Language and Composition, AP English Literature and Composition, AP Statistics, AP United States History",,40.85569,-73.88271
"Queens School of Inquiry, The",QUEENS   ,Kew Gardens Hills,576,95,93,97,82,72.0,1119.0,"AP Biology, AP Computer Science Principles, AP Psychology","Baseball/Softball, Volleyball",40.72445,-73.81021
Queens High School for Language Studies,QUEENS   ,Flushing,427,95,95,0,94,90.0,278.0,"AP Biology, AP Calculus BC, AP Chinese Language and Culture, AP English Literature and Composition, AP United States History",,40.76516,-73.82788
Professional Performing Arts High School (PPAS),MANHATTAN,Clinton,565,93,93,74,96,17.0,315.0,"AP Biology, AP Calculus AB, AP Chemistry, AP English Language and Composition, AP English Literature and Composition, AP United States History",,40.76144,-73.98801
High School for Community Leadership,QUEENS   ,Briarwood-Jamaica Hills,469,91,87,56,92,90.0,474.0,"AP Biology, AP Calculus AB, AP Chemistry, AP Comparative Government and Politics, AP English Language and Composition",Cheerleading,40.71321,-73.79723
George Westinghouse Career and Technical Education High School,BROOKLYN ,DUMBO-Downtown Brooklyn,756,74,88,39,79,47.0,561.0,"AP Computer Science Principles, AP English Language and Composition, AP English Literature and Composition, AP Environmental Science, AP United States History, AP World History: Modern",,40.69492,-73.98601
High School of Computers and Technology,BRONX    ,Williamsbridge-Olinville,569,61,87,62,83,118.0,1276.0,"AP English Language and Composition, AP English Literature and Composition, AP Statistics, AP United States History",,40.87595,-73.86196
Long Island City High School,QUEENS   ,Astoria,2256,66,86,45,78,114.0,428.0,"AP Biology, AP Calculus AB, AP Chemistry, AP Drawing, AP English Language and Composition, AP English Literature and Composition, AP Environmental Science, AP French Language and Culture, AP Italian Language and Culture, AP Physics 1, AP Psychology, AP Spanish Language and Culture, AP Spanish Literature and Culture, AP Statistics, AP U.S. Government and Politics, AP United States History, AP World History: Modern",,40.76582,-73.9328
Pace High School,MANHATTAN,Chinatown,537,86,87,77,91,124.0,2831.0,"AP Biology, AP Calculus AB, AP English Language and Composition, AP Environmental Science, AP United States History","Badminton, Soccer",40.71655,-73.99309
The Urban Assembly School for Collaborative Healthcare,BROOKLYN ,Cypress Hills,313,0,87,0,78,67.0,220.0,"AP Chemistry, AP English Language and Composition, AP English Literature and Composition, AP Statistics, AP U.S. Government and Politics, AP United States History","Baseball/Softball, Basketball, Dance, Football, Soccer, Swimming, Track/Cross Country, Volleyball",40.69114,-73.86832
Richard R. Green High School of Teaching,MANHATTAN,Lower Manhattan,499,68,87,53,85,66.0,151.0,"AP Art History, AP Biology, AP Computer Science Principles, AP English Language and Composition, AP Environmental Science, AP Spanish Language and Culture, AP U.S. Government and Politics",,40.70502,-74.01297
Pan American International High School at Monroe,BRONX    ,West Farms-Bronx River,478,79,88,59,94,85.0,351.0,"AP Spanish Language and Culture, AP Spanish Literature and Culture",,40.8316,-73.87891
Gotham Collaborative High School,BRONX    ,Castle Hill-Clason Point,553,67,80,36,82,85.0,227.0,AP Computer Science Principles,"Baseball/Softball, Basketball, Football, Soccer, Track/Cross Country, Volleyball",40.82229,-73.85616
"New Explorations into Science, Technology and Math High School (NEST+m)",MANHATTAN,Lower East Side,1734,97,95,85,89,133.0,5462.0,"AP Biology, AP Calculus AB, AP Calculus BC, AP Chemistry, AP Computer Science Principles, AP English Language and Composition, AP English Literature and Composition, AP Physics 1, AP Psychology, AP Spanish Language and Culture, AP Statistics, AP United States History, AP World History: Modern","Badminton, Basketball, Soccer, Track/Cross Country, Volleyball",40.71889,-73.9793
Manhattan Academy for Arts & Language,MANHATTAN,Murray Hill-Kips Bay,269,52,86,43,82,90.0,143.0,"AP English Language and Composition, AP English Literature and Composition, AP Environmental Science, AP Spanish Language and Culture, AP Spanish Literature and Culture, AP World History: Modern",Basketball,40.74617,-73.98124
High School for Law Enforcement and Public Safety,QUEENS   ,Baisley Park,498,80,89,63,64,134.0,549.0,"AP Biology, AP English Language and Composition, AP Environmental Science, AP United States History",,40.6862,-73.78414
Metropolitan Diploma Plus High School,BROOKLYN ,Brownsville,217,0,66,0,91,25.0,7.0,"AP English Language and Composition, AP Environmental Science, AP Statistics, AP United States History",,40.65606,-73.90724
NYC iSchool,MANHATTAN,SoHo-Tribeca,457,98,93,91,95,98.0,3861.0,"AP Calculus AB, AP English Language and Composition, AP Environmental Science, AP World History: Modern",Soccer,40.7244,-74.00462
Young Women's Leadership School of the Bronx (TYWLS),BRONX    ,Mount Hope,465,0,92,0,85,64.0,437.0,"AP Computer Science Principles, AP Psychology, AP U.S. Government and Politics, AP United States History, AP World History: Modern","Basketball, Softball, Track, Volleyball",40.84854,-73.90841
Pathways in Technology Early College High School (P-TECH),BROOKLYN ,Crown Heights North,592,81,93,68,83,89.0,855.0,,"Cheerleading, Dance",40.67561,-73.93884
Midwood High School,BROOKLYN ,Flatbush,4058,90,92,81,80,330.0,559.0,"AP Biology, AP Calculus AB, AP Calculus BC, AP Chemistry, AP Computer Science A, AP Computer Science Principles, AP English Language and Composition, AP English Literature and Composition, AP Environmental Science, AP French Language and Culture, AP Human Geography, AP Macroeconomics, AP Physics 1, AP Physics 2, AP Physics C: Mechanics, AP Psychology, AP Research, AP Seminar, AP Spanish Language and Culture, AP Statistics, AP U.S. Government and Politics, AP United States History, AP World History: Modern","Basketball, Dance, Volleyball",40.63323,-73.95292
Crotona International High School,BRONX    ,Belmont,335,63,83,15,69,64.0,134.0,,"Soccer, Softball, Volleyball, Baseball, Basketball, Pickleball, Floorball",40.85569,-73.88271
Pelham Lab High School,BRONX    ,Schuylerville-Throgs Neck,466,71,83,0,67,85.0,679.0,"AP English Language and Composition, AP Environmental Science, AP Spanish Language and Culture",,40.8407,-73.83854
The Laboratory School of Finance and Technology,BRONX    ,Mott Haven-Port Morris,684,92,90,0,91,23.0,242.0,"AP Biology, AP Calculus AB, AP Computer Science A, AP Computer Science Principles, AP English Language and Composition, AP English Literature and Composition, AP Environmental Science, AP Physics 1, AP Spanish Language and Culture","Basketball, Football, Intramural Sports, Soccer",40.81398,-73.92078
N.Y.C. Museum School,MANHATTAN,Chelsea-Union Sq,450,100,94,90,94,103.0,3122.0,"AP Biology, AP Calculus AB, AP Environmental Science, AP European History, AP Statistics, AP United States History","Basketball, Football, Track/Cross Country",40.74212,-74.00219
Eagle Academy for Young Men III,QUEENS   ,St. Albans,531,93,91,0,63,63.0,127.0,"AP Biology, AP English Language and Composition, AP English Literature and Composition, AP Human Geography, AP United States History",,40.69171,-73.77892
Aviation Career & Technical Education High School,QUEENS   ,Hunters Point-Sunnyside,2084,97,97,68,91,209.0,2380.0,"AP Calculus AB, AP Calculus BC, AP Chemistry, AP English Language and Composition, AP English Literature and Composition, AP Environmental Science, AP Physics 1, AP Statistics, AP U.S. Government and Politics, AP United States History, AP World History: Modern",,40.7435,-73.92907
Unity Center for Urban Technologies,MANHATTAN,Murray Hill-Kips Bay,255,77,84,64,89,79.0,495.0,"AP English Language and Composition, AP English Literature and Composition, AP Environmental Science, AP Statistics, AP United States History",,40.74617,-73.98124
Academy of Innovative Technology,BROOKLYN ,Cypress Hills,403,74,88,48,89,89.0,568.0,"AP Calculus AB, AP Computer Science A, AP English Literature and Composition, AP United States History",,40.69114,-73.86832
Landmark High School,MANHATTAN,Chelsea-Union Sq,348,65,81,36,85,83.0,256.0,,"Baseball/Softball, Cheerleading, Football",40.74286,-74.00213
Urban Assembly School for Criminal Justice,BROOKLYN ,Borough Park,556,93,90,81,86,67.0,378.0,"AP Calculus AB, AP English Literature and Composition, AP Environmental Science, AP Spanish Language and Culture, AP United States History","Basketball, Football, Soccer, Track/Cross Country",40.63487,-73.98152
Benjamin Banneker Academy,BROOKLYN ,Clinton Hill,844,92,88,80,83,50.0,1356.0,"AP Biology, AP Calculus AB, AP Calculus BC, AP Chemistry, AP Computer Science Principles, AP English Language and Composition, AP English Literature and Composition, AP Environmental Science, AP Human Geography, AP Macroeconomics, AP Microeconomics, AP Music Theory, AP Physics 1, AP Psychology, AP Seminar, AP Spanish Language and Culture, AP Statistics, AP U.S. Government and Politics, AP United States History, AP World History: Modern",,40.69533,-73.96924
Eagle Academy for Young Men,BRONX    ,Claremont-Bathgate,511,74,87,64,71,,,"AP Calculus AB, AP English Literature and Composition, AP United States History, AP World History: Modern",,40.84495,-73.89704
Hillside Arts & Letters Academy,QUEENS   ,Briarwood-Jamaica Hills,467,84,85,53,92,90.0,628.0,"AP Biology, AP Calculus AB, AP Computer Science Principles, AP English Language and Composition, AP English Literature and Composition, AP Environmental Science, AP Psychology, AP Spanish Language and Culture, AP United States History",Cheerleading,40.71321,-73.79723
Fordham Leadership Academy,BRONX    ,Belmont,342,72,90,32,70,85.0,739.0,"AP Calculus AB, AP English Language and Composition, AP English Literature and Composition, AP European History, AP Spanish Language and Culture, AP United States History",,40.86004,-73.88826
Bronx Lab School,BRONX    ,Williamsbridge-Olinville,399,60,81,41,71,98.0,433.0,,,40.87595,-73.86196
Cypress Hills Collegiate Preparatory School,BROOKLYN ,Cypress Hills,251,69,89,51,90,89.0,298.0,"AP English Language and Composition, AP English Literature and Composition, AP Environmental Science, AP Human Geography, AP Spanish Language and Culture, AP United States History",,40.69114,-73.86832
Park Slope Collegiate,BROOKLYN ,Park Slope-Gowanus,654,64,87,66,76,82.0,654.0,,,40.66962,-73.97928
"Young Women's Leadership School, Queens (TYWLS)",QUEENS   ,Briarwood-Jamaica Hills,563,96,94,84,87,68.0,529.0,"AP Calculus AB, AP Computer Science Principles, AP English Language and Composition, AP English Literature and Composition, AP Environmental Science, AP Research, AP Seminar, AP United States History","Bowling, Cross Country, Indoor Track, Outdoor Track, Flag Football, Middle School Basketball",40.70752,-73.80641
Brooklyn Preparatory High School,BROOKLYN ,Williamsburg,512,92,86,69,80,110.0,1200.0,"AP 2-D Art and Design, AP Calculus AB, AP Chemistry, AP English Language and Composition, AP Environmental Science, AP European History, AP Psychology, AP Spanish Language and Culture, AP United States History",Intramural Sports,40.71507,-73.95475
Williamsburg High School for Architecture and Design,BROOKLYN ,Williamsburg,566,95,91,56,96,124.0,1197.0,"AP English Language and Composition, AP Environmental Science, AP Human Geography, AP Spanish Language and Culture, AP United States History","Baseball/Softball, Basketball, Football, Track/Cross Country, Volleyball",40.71507,-73.95475
School for Tourism and Hospitality,BRONX    ,Morrisania-Melrose,305,55,77,42,81,106.0,184.0,"AP English Language and Composition, AP Environmental Science, AP Statistics, AP U.S. Government and Politics",,40.82167,-73.90354
High School for Youth and Community Development at Erasmus,BROOKLYN ,Flatbush,480,79,88,39,80,45.0,256.0,"AP English Language and Composition, AP Macroeconomics, AP Psychology, AP Statistics, AP U.S. Government and Politics",,40.64978,-73.95855
Benjamin N. Cardozo High School,QUEENS   ,Bayside-Oakland Gardens,3699,91,92,77,81,130.0,3714.0,"AP Biology, AP Calculus AB, AP Calculus BC, AP Chemistry, AP Chinese Language and Culture, AP Computer Science A, AP Computer Science Principles, AP English Language and Composition, AP English Literature and Composition, AP Environmental Science, AP European History, AP Macroeconomics, AP Microeconomics, AP Music Theory, AP Physics 1, AP Psychology, AP Spanish Language and Culture, AP Statistics, AP U.S. Government and Politics, AP United States History, AP World History: Modern",,40.75233,-73.75598
East New York Family Academy,BROOKLYN ,East New York,496,95,88,68,85,62.0,489.0,"AP Computer Science Principles, AP English Language and Composition, AP English Literature and Composition, AP Environmental Science, AP Spanish Language and Culture, AP Statistics, AP United States History, AP World History: Modern","We offer Intramural sport opportunities for all of our students in Baseball, Basketball, Football, Intramural Sports, Softball, Soccer, and Volleyball",40.67413,-73.89642
Young Women's Leadership School (TYWLS),MANHATTAN,East Harlem South,481,100,94,97,94,67.0,1052.0,"AP Biology, AP Calculus AB, AP English Literature and Composition, AP Spanish Literature and Culture, AP Statistics, AP U.S. Government and Politics",,40.79274,-73.94742
Theater Arts Production Company School (TAPCo),BRONX    ,Mount Hope,608,73,85,65,83,27.0,87.0,"AP Computer Science Principles, AP English Language and Composition, AP Seminar, AP United States History","Baseball/Softball, Basketball, Soccer, Volleyball",40.85451,-73.8967
Fannie Lou Hamer Freedom High School,BRONX    ,Crotona Park East,473,68,80,37,88,86.0,408.0,,Intramural Sports,40.83086,-73.88625
Academy of Finance and Enterprise,QUEENS   ,Hunters Point-Sunnyside,598,94,93,77,90,104.0,1701.0,"AP Calculus AB, AP Chemistry, AP English Language and Composition, AP Spanish Language and Culture, AP Statistics, AP U.S. Government and Politics, AP United States History, AP World History: Modern",,40.74509,-73.93663
Beacon High School,MANHATTAN,Clinton,1380,100,96,87,96,290.0,6072.0,"AP Biology, AP Calculus AB, AP Chemistry, AP Physics 1, AP Spanish Language and Culture",,40.76145,-73.9958
The Urban Assembly School for Law and Justice,BROOKLYN ,DUMBO-Downtown Brooklyn,449,91,91,76,84,95.0,1383.0,"AP English Language and Composition, AP Environmental Science, AP Microeconomics, AP Psychology, AP United States History",,40.69468,-73.98885
Humanities & Arts Magnet High School,QUEENS   ,Cambria Heights,454,68,86,45,67,100.0,310.0,"AP Drawing, AP English Language and Composition, AP English Literature and Composition, AP Environmental Science, AP Psychology, AP Statistics, AP U.S. Government and Politics, AP United States History",,40.69781,-73.74572
Bronx High School for Medical Science,BRONX    ,E. Concourse-Concourse Village,433,91,93,83,75,64.0,1683.0,,"Basketball, Volleyball",40.84042,-73.91091
The Urban Assembly School for Green Careers,MANHATTAN,Upper West Side,311,83,84,43,92,90.0,200.0,"AP English Literature and Composition, AP Human Geography, AP Spanish Language and Culture, AP United States History, AP World History: Modern","Basketball, Dance, Intramural Sports, Soccer",40.7858,-73.97461
John Adams High School,QUEENS   ,South Ozone Park,2281,71,86,45,75,57.0,138.0,"AP Biology, AP Calculus AB, AP Chemistry, AP Computer Science Principles, AP English Language and Composition, AP English Literature and Composition, AP Environmental Science, AP Spanish Language and Culture, AP U.S. Government and Politics, AP United States History","Badminton, Intramural Sports, Soccer",40.67963,-73.83729
High School of Economics and Finance,MANHATTAN,Lower Manhattan,738,90,88,82,83,166.0,1226.0,"AP Biology, AP Calculus AB, AP English Language and Composition, AP English Literature and Composition, AP European History, AP Spanish Language and Culture, AP Statistics, AP United States History","Girls: Basketball, Bowling, Flag Football, Outdoor Track, Softball and Tennis/ Boys: Basketball, Bowling, Cross Country, Handball and Outdoor Track",40.70919,-74.01202
The Urban Assembly School of Design and Construction,MANHATTAN,Clinton,356,59,83,47,82,90.0,269.0,"AP Calculus AB, AP English Language and Composition, AP English Literature and Composition, AP Spanish Language and Culture, AP U.S. Government and Politics","Baseball/Softball, Basketball, Football, Soccer, Track/Cross Country",40.76525,-73.9931
Energy Tech High School,QUEENS   ,Queensbridge-LIC,511,93,94,0,85,83.0,1186.0,"AP Computer Science Principles, AP English Language and Composition, AP English Literature and Composition, AP Spanish Language and Culture","Basketball, Cheerleading, Football, Soccer, Track/Cross Country, Volleyball",40.75706,-73.93266
High School of Language and Innovation,BRONX    ,Bronxdale,363,73,87,51,82,85.0,226.0,"AP Calculus AB, AP English Language and Composition, AP Environmental Science, AP Spanish Language and Culture, AP U.S. Government and Politics",,40.85966,-73.861
South Bronx Preparatory: A College Board School,BRONX    ,Mott Haven-Port Morris,659,96,92,58,95,,,"AP 2-D Art and Design, AP Computer Science Principles, AP English Literature and Composition, AP Psychology, AP Spanish Language and Culture, AP U.S. Government and Politics, AP United States History",Cheerleading,40.81398,-73.92078
Brooklyn College Academy,BROOKLYN ,Windsor Terrace,622,98,95,95,96,132.0,2412.0,"AP English Literature and Composition, AP U.S. Government and Politics",,40.6494,-73.97173
Rachel Carson High School for Coastal Studies,BROOKLYN ,West Brighton,639,67,86,54,82,89.0,241.0,"AP Biology, AP Calculus AB, AP Computer Science Principles, AP English Language and Composition, AP English Literature and Composition, AP U.S. Government and Politics",Intramural Sports,40.58253,-73.97313
"Heritage School, The",MANHATTAN,East Harlem South,294,73,88,41,80,66.0,405.0,AP English Literature and Composition,,40.79188,-73.94655
The High School of Fashion Industries,MANHATTAN,Chelsea-Union Sq,1590,93,91,79,86,170.0,520.0,"AP 2-D Art and Design, AP Biology, AP Calculus AB, AP Computer Science Principles, AP English Literature and Composition, AP Psychology, AP Spanish Language and Culture, AP U.S. Government and Politics, AP United States History","Badminton, Baseball/Softball, Basketball, Soccer, Track/Cross Country, Volleyball",40.74515,-73.99607
International High School at LaGuardia Community College,QUEENS   ,Hunters Point-Sunnyside,527,83,92,80,98,92.0,586.0,,,40.74441,-73.93363
Talent Unlimited High School,MANHATTAN,Lenox Hill,478,97,93,75,91,22.0,229.0,"AP Calculus AB, AP Computer Science Principles, AP English Literature and Composition, AP Music Theory, AP United States History",,40.76535,-73.96005
Urban Assembly Gateway School for Technology,MANHATTAN,Clinton,445,87,89,72,91,90.0,1575.0,"AP Calculus AB, AP Calculus BC, AP Chemistry, AP Computer Science A, AP Computer Science Principles, AP English Language and Composition, AP English Literature and Composition, AP Spanish Language and Culture, AP United States History","Cheerleading, Football, Soccer, Track/Cross Country",40.76337,-73.9906
Riverdale / Kingsbridge Academy (Middle School / High School 141) (RKA),BRONX    ,Fieldston-Riverdale,1513,92,92,71,81,126.0,1210.0,"AP 3-D Art and Design, AP Biology, AP Calculus AB, AP English Language and Composition, AP English Literature and Composition, AP Spanish Language and Culture, AP United States History","Baseball/Softball, Cheerleading, Dance, Track/Cross Country, Volleyball",40.88833,-73.91348
High School for Environmental Studies,MANHATTAN,Clinton,1194,80,85,67,84,226.0,1836.0,"AP Biology, AP Calculus AB, AP Computer Science Principles, AP English Language and Composition, AP English Literature and Composition, AP Environmental Science, AP U.S. Government and Politics, AP United States History, AP World History: Modern",,40.76779,-73.98753
Schuylerville Preparatory High School,BRONX    ,Schuylerville-Throgs Neck,376,67,87,0,67,85.0,322.0,"AP Biology, AP English Language and Composition, AP English Literature and Composition, AP Statistics, AP World History: Modern",,40.8407,-73.83854
CSI High School for International Studies,STATEN IS,Todt Hill-Heartland Village,495,99,95,92,95,96.0,1028.0,"AP 2-D Art and Design, AP Biology, AP Calculus AB, AP Comparative Government and Politics, AP Computer Science Principles, AP Drawing, AP English Language and Composition, AP English Literature and Composition, AP United States History",Cheerleading,40.58131,-74.15858
Lyons Community School,BROOKLYN ,East Williamsburg,496,65,81,40,81,67.0,206.0,,"Basketball, Cheerleading, Flag Football, Soccer, Cross Country, Wrestling, Baseball and Volleyball",40.70994,-73.94364
Brooklyn Technical High School,BROOKLYN ,Fort Greene,5838,98,96,95,95,,,"AP Biology, AP Calculus AB, AP Calculus BC, AP Chemistry, AP Chinese Language and Culture, AP Comparative Government and Politics, AP Computer Science A, AP Computer Science Principles, AP English Language and Composition, AP English Literature and Composition, AP Environmental Science, AP European History, AP French Language and Culture, AP Human Geography, AP Italian Language and Culture, AP Macroeconomics, AP Microeconomics, AP Physics 1, AP Physics 2, AP Physics C: Electricity and Magnetism, AP Physics C: Mechanics, AP Psychology, AP Research, AP Seminar, AP Spanish Language and Culture, AP Statistics, AP U.S. Government and Politics, AP United States History, AP World History: Modern",,40.68883,-73.9769
Morris Academy for Collaborative Studies,BRONX    ,Morrisania-Melrose,401,73,84,46,89,97.0,415.0,"AP Computer Science Principles, AP English Language and Composition, AP Spanish Language and Culture, AP United States History","Basketball, Football, Intramural Sports",40.82764,-73.90447
Brooklyn Institute for Liberal Arts (BILA),BROOKLYN ,Prospect Lefferts Gardens,381,97,93,64,86,124.0,758.0,"AP English Language and Composition, AP English Literature and Composition, AP Environmental Science, AP Human Geography, AP Statistics","Baseball/Softball, Basketball, Soccer, Track/Cross Country, Volleyball",40.65889,-73.94245
Grover Cleveland High School,QUEENS   ,Ridgewood,1775,63,83,43,79,83.0,332.0,"AP Biology, AP Calculus AB, AP Chemistry, AP Computer Science Principles, AP English Language and Composition, AP English Literature and Composition, AP European History, AP Music Theory, AP Spanish Language and Culture, AP Spanish Literature and Culture, AP Statistics, AP United States History",,40.71103,-73.90881
Franklin Delano Roosevelt High School,BROOKLYN ,Borough Park,3061,68,89,51,82,84.0,796.0,"AP 2-D Art and Design, AP Biology, AP Calculus AB, AP Calculus BC, AP Chemistry, AP Chinese Language and Culture, AP Computer Science A, AP Computer Science Principles, AP English Language and Composition, AP English Literature and Composition, AP Psychology, AP Spanish Language and Culture, AP Statistics, AP U.S. Government and Politics, AP United States History",,40.62044,-73.98179
Queens Preparatory Academy,QUEENS   ,Springfield Gardens North,415,70,83,52,71,90.0,230.0,"AP Calculus AB, AP Chemistry, AP English Language and Composition, AP English Literature and Composition, AP Environmental Science, AP United States History, AP World History: Modern",,40.66823,-73.75683
The Urban Assembly Bronx Academy of Letters,BRONX    ,Mott Haven-Port Morris,590,85,80,43,80,64.0,257.0,"AP Biology, AP Spanish Language and Culture, AP Statistics","Baseball/Softball, Basketball, Dance, Soccer, Track/Cross Country, Volleyball",40.81364,-73.92531
Automotive High School,BROOKLYN ,Williamsburg,399,72,81,18,79,56.0,197.0,"AP English Language and Composition, AP Environmental Science, AP United States History","Baseball/Softball,Basketball,Handball,Cheerleading,Football,Soccer,Track/Cross Country,Volleyball",40.72198,-73.95328
Herbert H. Lehman High School,BRONX    ,Schuylerville-Throgs Neck,732,59,83,35,67,94.0,761.0,"AP Biology, AP Calculus AB, AP Computer Science Principles, AP English Language and Composition, AP English Literature and Composition, AP Human Geography, AP Microeconomics, AP Psychology, AP Spanish Language and Culture, AP Statistics","Football, Baseball, Basketball, Bowling, Cross Country, Flag Football, Indoor Track, Wrestling, Cricket, Rugby, Lacrosse, Outdoor Track, Soccer, Softball, Tennis, Volleyball and Cheerleading",40.8407,-73.83854
Spring Creek Community School,BROOKLYN ,Bergen Beach,478,0,92,0,88,48.0,379.0,"AP English Literature and Composition, AP United States History",,40.65743,-73.87473
Academy of American Studies,QUEENS   ,Queensbridge-LIC,1038,93,94,72,89,57.0,2122.0,"AP Calculus AB, AP Calculus BC, AP English Language and Composition, AP English Literature and Composition, AP European History, AP Human Geography, AP Macroeconomics, AP Spanish Language and Culture, AP U.S. Government and Politics, AP United States History",,40.75133,-73.93743
Academy of Medical Technology: A College Board School,QUEENS   ,Far Rockaway-Bayswater,639,73,86,32,81,50.0,290.0,"AP Biology, AP Environmental Science, AP Spanish Language and Culture","Basketball, Football, Swimming",40.60201,-73.76279
DeWitt Clinton High School,BRONX    ,Van Cortlandt Village,1203,50,84,34,68,118.0,532.0,"AP Biology, AP Calculus AB, AP English Language and Composition, AP English Literature and Composition, AP Environmental Science, AP U.S. Government and Politics, AP United States History, AP World History: Modern","Cheerleading, Dance, Soccer, Swimming",40.88217,-73.88691
Epic High School - North,QUEENS   ,Richmond Hill,390,0,89,0,93,68.0,479.0,"AP Biology, AP Computer Science Principles, AP English Literature and Composition, AP Environmental Science, AP Statistics, AP United States History","League Team Sports: Boys Baseball, Girls Softball, Boys Basketball, Girls Basketball, Girls Volleyball, Boys Soccer",40.693,-73.8294
East Side Community School,MANHATTAN,East Village,683,92,94,77,94,72.0,1263.0,"AP Calculus AB, AP Computer Science Principles, AP English Literature and Composition","Baseball/Softball, Basketball, Soccer, Track/Cross Country",40.72958,-73.98255
Urban Assembly Institute of Math and Science for Young Women,BROOKLYN ,DUMBO-Downtown Brooklyn,480,78,87,62,77,67.0,237.0,"AP Biology, AP Environmental Science, AP Spanish Language and Culture","Cheerleading, Dance, Intramural Sports, Soccer, Track/Cross Country, Volleyball",40.69468,-73.98885
The Urban Assembly School of Business for Young Women,MANHATTAN,Lower Manhattan,232,75,83,49,81,50.0,118.0,"AP English Language and Composition, AP English Literature and Composition, AP Environmental Science, AP Psychology, AP United States History","Basketball, Track/Cross Country, Volleyball",40.70568,-74.0133
"Celia Cruz Bronx High School of Music, The",BRONX    ,Van Cortlandt Village,427,95,91,70,87,35.0,237.0,"AP English Language and Composition, AP English Literature and Composition, AP Environmental Science, AP Microeconomics, AP Spanish Language and Culture, AP United States History","Baseball/Softball, Basketball, Swimming, Volleyball",40.87029,-73.8983
Pan American International High School,QUEENS   ,Elmhurst,449,90,92,35,94,90.0,158.0,"AP 2-D Art and Design, AP Computer Science Principles, AP Spanish Language and Culture, AP Spanish Literature and Culture","Baseball/Softball, Basketball, Soccer, Volleyball",40.74372,-73.87064
High School of Hospitality Management,MANHATTAN,Clinton,391,70,82,54,88,90.0,466.0,"AP 2-D Art and Design, AP Computer Science Principles, AP Drawing, AP English Literature and Composition, AP Statistics, AP World History: Modern","Basketball, Football, Intramural Sports",40.76525,-73.9931
Frederick Douglass Academy III Secondary School,BRONX    ,Claremont-Bathgate,424,73,76,34,83,85.0,345.0,"AP Biology, AP Calculus AB, AP Chemistry, AP English Literature and Composition, AP Environmental Science, AP Psychology, AP United States History","Baseball/Softball, Cheerleading, Dance, Football, Track/Cross Country, Volleyball, Basketball, Stunt, Volleyball, Soccer, Fencing",40.83351,-73.90448
High School of Arts and Technology,MANHATTAN,Lincoln Square,504,74,82,34,70,60.0,885.0,"AP English Language and Composition, AP English Literature and Composition, AP United States History","Basketball, Intramural Sports",40.77435,-73.98475
Newcomers High School,QUEENS   ,Queensbridge-LIC,911,77,89,55,88,68.0,188.0,"AP Calculus AB, AP Chinese Language and Culture, AP English Language and Composition, AP Spanish Language and Culture, AP Spanish Literature and Culture, AP U.S. Government and Politics","Basketball, Soccer, Swimming, Volleyball, Cricket",40.75135,-73.93744
Bronx High School for the Visual Arts,BRONX    ,Pelham Parkway,441,66,84,38,81,42.0,705.0,"AP English Language and Composition, AP Psychology, AP Spanish Language and Culture",,40.8514,-73.86503
Preparatory Academy for Writers: A College Board School,QUEENS   ,Springfield Gardens North,588,90,85,59,83,68.0,232.0,"AP Biology, AP English Language and Composition, AP English Literature and Composition, AP Statistics",,40.66823,-73.75683
Brooklyn Community Arts & Media High School (BCAM),BROOKLYN ,Clinton Hill,425,77,82,53,87,124.0,469.0,"AP Calculus AB, AP English Language and Composition, AP English Literature and Composition, AP Environmental Science, AP United States History","Football, Soccer, Track/Cross Country",40.69264,-73.95879
All City Leadership Secondary School,BROOKLYN ,Bushwick,435,97,93,73,98,51.0,1164.0,"AP Calculus AB, AP Chemistry, AP Computer Science Principles, AP English Language and Composition, AP English Literature and Composition, AP Psychology",,40.69736,-73.91317
Health Opportunities High School,BRONX    ,West Concourse,491,49,77,53,88,118.0,468.0,"AP Biology, AP Calculus AB, AP English Literature and Composition, AP Spanish Language and Culture, AP U.S. Government and Politics",,40.81593,-73.93038
Gramercy Arts High School,MANHATTAN,Gramercy,491,81,84,57,73,53.0,398.0,"AP Calculus AB, AP Chemistry, AP English Language and Composition, AP English Literature and Composition, AP Environmental Science, AP Human Geography, AP Psychology, AP Spanish Language and Culture, AP Statistics, AP United States History, AP World History: Modern",,40.73549,-73.98765
Brooklyn High School of the Arts,BROOKLYN ,DUMBO-Downtown Brooklyn,867,85,92,64,87,67.0,583.0,"AP Art History, AP Biology, AP Chemistry, AP English Language and Composition, AP English Literature and Composition, AP Environmental Science, AP Human Geography, AP Psychology, AP Seminar, AP Statistics, AP United States History, AP World History: Modern","Badminton, Basketball, Track/Cross Country, Volleyball",40.68355,-73.98027
High School for Arts and Business,QUEENS   ,Corona,812,90,92,68,95,159.0,2098.0,"AP Art History, AP Biology, AP Calculus AB, AP English Language and Composition, AP English Literature and Composition, AP Psychology, AP Spanish Language and Culture, AP Spanish Literature and Culture, AP United States History, AP World History: Modern","Dance, Track/Cross Country",40.73742,-73.85317
Teachers Preparatory High School,BROOKLYN ,Brownsville,250,69,80,49,71,61.0,92.0,"AP Biology, AP Computer Science Principles, AP English Literature and Composition, AP United States History",,40.66587,-73.9117
"City Polytechnic High School of Engineering, Architecture, and Technology",BROOKLYN ,DUMBO-Downtown Brooklyn,439,87,89,77,0,89.0,1546.0,,Intramural Sports,40.69492,-73.98601
Murray Hill Academy,MANHATTAN,Murray Hill-Kips Bay,317,0,79,0,90,75.0,267.0,"AP English Language and Composition, AP Environmental Science, AP Statistics, AP United States History",,40.74617,-73.98124
Manhattan Bridges High School,MANHATTAN,Clinton,517,85,92,78,90,50.0,524.0,"AP Calculus AB, AP Computer Science A, AP Computer Science Principles, AP English Language and Composition, AP Environmental Science, AP Spanish Language and Culture",Track/Cross Country,40.76525,-73.9931
Food and Finance High School,MANHATTAN,Clinton,378,91,90,67,77,90.0,1389.0,"AP English Literature and Composition, AP United States History",,40.76525,-73.9931
Urban Action Academy,BROOKLYN ,Canarsie,278,58,81,33,81,89.0,119.0,"AP Chemistry, AP Computer Science Principles, AP English Literature and Composition, AP Psychology","Soccer, Basketball, Football, Wrestling, Baseball and Volley ball",40.64147,-73.89825
"High School for Law, Advocacy and Community Justice",MANHATTAN,Lincoln Square,466,73,84,63,79,116.0,1070.0,"AP Computer Science Principles, AP English Literature and Composition, AP Environmental Science, AP Psychology, AP Spanish Language and Culture, AP United States History","Badminton, Baseball/Softball, Basketball, Soccer, Track/Cross Country, Volleyball",40.77435,-73.98475
Antonia Pantoja Preparatory Academy: A College Board School,BRONX    ,Castle Hill-Clason Point,404,60,80,39,77,64.0,116.0,"AP Biology, AP Calculus AB, AP English Language and Composition, AP English Literature and Composition, AP United States History",,40.82229,-73.85616
Stephen T. Mather Building Arts & Craftsmanship High School,MANHATTAN,Clinton,394,83,87,0,86,90.0,420.0,"AP Biology, AP English Language and Composition, AP Spanish Language and Culture, AP U.S. Government and Politics, AP United States History","Basketball, Football, Intramural Sports, Soccer",40.76337,-73.9906
DreamYard Preparatory School,BRONX    ,E. Concourse-Concourse Village,266,68,84,33,85,85.0,403.0,"AP English Language and Composition, AP English Literature and Composition, AP Psychology, AP Spanish Language and Culture",,40.84042,-73.91091
Queens Technical High School,QUEENS   ,Hunters Point-Sunnyside,1546,84,90,62,82,23.0,274.0,"AP Calculus AB, AP English Language and Composition, AP English Literature and Composition, AP Human Geography, AP Physics 1, AP Spanish Language and Culture, AP U.S. Government and Politics, AP United States History, AP World History: Modern",,40.7422,-73.92821
New Design High School,MANHATTAN,Chinatown,427,92,86,58,92,104.0,870.0,"AP English Literature and Composition, AP United States History","Basketball, Baseball, Softball, Volleyball, Bowling, and Wrestling",40.71734,-73.98959
Kurt Hahn Expeditionary Learning School,BROOKLYN ,East Flatbush,353,86,89,43,79,67.0,135.0,AP English Literature and Composition,,40.64865,-73.92217
Stuyvesant High School,MANHATTAN,Lower Manhattan,3336,98,97,98,97,,,"AP Art History, AP Biology, AP Calculus AB, AP Calculus BC, AP Chemistry, AP Chinese Language and Culture, AP Computer Science A, AP English Language and Composition, AP English Literature and Composition, AP Environmental Science, AP European History, AP French Language and Culture, AP Human Geography, AP Japanese Language and Culture, AP Latin, AP Macroeconomics, AP Microeconomics, AP Music Theory, AP Physics 1, AP Physics 2, AP Physics C: Mechanics, AP Psychology, AP Spanish Language and Culture, AP Spanish Literature and Culture, AP Statistics, AP U.S. Government and Politics, AP United States History, AP World History: Modern",,40.7177,-74.01399
Tottenville High School,STATEN IS,Annadale-Huguenot-Princes Bay,3808,89,91,62,81,27.0,192.0,"AP 2-D Art and Design, AP Biology, AP Calculus AB, AP Calculus BC, AP Chemistry, AP Computer Science A, AP Computer Science Principles, AP Drawing, AP English Language and Composition, AP English Literature and Composition, AP Environmental Science, AP Italian Language and Culture, AP Latin, AP Music Theory, AP Physics 1, AP Psychology, AP Spanish Language and Culture, AP U.S. Government and Politics, AP United States History, AP World History: Modern","Cheerleading, Dance",40.52809,-74.19203
Longwood Preparatory Academy,BRONX    ,Longwood,199,50,80,29,88,85.0,249.0,"AP English Literature and Composition, AP United States History","Boys and Girls Basketball, Softball, Baseball, Cheerleading, Stunt",40.81751,-73.89821
High School for Contemporary Arts,BRONX    ,Williamsbridge-Olinville,446,75,86,33,70,42.0,220.0,"AP 2-D Art and Design, AP English Language and Composition, AP Spanish Language and Culture",,40.87595,-73.86196
Bronx School of Law and Finance,BRONX    ,Spuyten Duyvil-Kingsbridge,380,77,80,40,65,85.0,396.0,"AP English Language and Composition, AP Spanish Language and Culture, AP Spanish Literature and Culture, AP Statistics, AP United States History",,40.8771,-73.91225
Lower Manhattan Arts Academy,MANHATTAN,Chinatown,329,81,88,58,86,62.0,670.0,,"Basketball, Intramural Sports, Soccer, Swimming",40.71734,-73.98959
ACORN Community High School,BROOKLYN ,Crown Heights North,193,74,80,54,83,103.0,159.0,,,40.67848,-73.9621
Astor Collegiate Academy,BRONX    ,Bronxdale,476,80,86,60,67,93.0,761.0,"AP Biology, AP Computer Science Principles, AP English Language and Composition, AP English Literature and Composition, AP Statistics, AP United States History",,40.85966,-73.861
Epic High School - South,QUEENS   ,South Ozone Park,329,0,84,0,88,78.0,286.0,"AP Drawing, AP English Language and Composition, AP Environmental Science, AP Human Geography, AP Psychology, AP Statistics, AP World History: Modern","Baseball/Softball, Basketball, Cheerleading",40.67577,-73.81693
Bronx Career and College Preparatory High School,BRONX    ,Longwood,254,43,76,29,82,64.0,242.0,"AP English Language and Composition, AP English Literature and Composition, AP Environmental Science, AP United States History",,40.82774,-73.9001
Martin Van Buren High School,QUEENS   ,Bellerose,1174,67,87,43,69,57.0,367.0,"AP Biology, AP Calculus AB, AP Chemistry, AP Computer Science Principles, AP English Language and Composition, AP English Literature and Composition, AP Environmental Science, AP Psychology, AP Spanish Language and Culture, AP United States History, AP World History: Modern",,40.73306,-73.73875
The Clinton School,MANHATTAN,Chelsea-Union Sq,604,0,97,0,96,80.0,1827.0,,"Basketball, Track/Cross Country, Volleyball, Ultimate Frisbee, Table Tennis",40.73651,-73.99272
Vanguard High School,MANHATTAN,Lenox Hill,446,74,87,51,93,91.0,810.0,"AP Calculus AB, AP Computer Science Principles, AP English Language and Composition, AP English Literature and Composition, AP Human Geography, AP Physics C: Mechanics, AP Spanish Language and Culture, AP United States History",,40.76535,-73.96005
East Bronx Academy for the Future,BRONX    ,Crotona Park East,671,78,79,57,82,,,"AP English Language and Composition, AP Environmental Science, AP Human Geography, AP Psychology, AP Statistics, AP United States History","Baseball/Softball, Basketball, Football, Soccer, Track/Cross Country",40.83635,-73.88836
Excelsior Preparatory High School,QUEENS   ,Springfield Gardens North,483,79,87,52,80,,,"AP Biology, AP Calculus AB, AP Computer Science Principles, AP English Language and Composition, AP English Literature and Composition, AP Spanish Language and Culture",,40.66823,-73.75683
Bronx Leadership Academy High School,BRONX    ,Claremont-Bathgate,583,54,82,44,66,119.0,484.0,"AP Biology, AP Calculus AB, AP English Language and Composition, AP United States History",,40.84358,-73.90323
Belmont Preparatory High School,BRONX    ,Belmont,402,92,89,63,91,85.0,1354.0,"AP Computer Science Principles, AP English Language and Composition, AP English Literature and Composition, AP Environmental Science, AP Spanish Language and Culture, AP Statistics, AP United States History",,40.86004,-73.88826
Mott Hall V,BRONX    ,West Farms-Bronx River,682,89,88,69,92,64.0,1572.0,"AP Calculus AB, AP Computer Science A, AP English Literature and Composition, AP Psychology, AP United States History",,40.83141,-73.87778
"The High School for Enterprise, Business and Technology",BROOKLYN ,Bushwick,872,78,85,61,72,79.0,586.0,"AP Biology, AP Calculus AB, AP Calculus BC, AP Computer Science Principles, AP English Language and Composition, AP English Literature and Composition, AP Environmental Science, AP United States History, AP World History: Modern",,40.71218,-73.93972
Queens Metropolitan High School,QUEENS   ,Forest Hills,1091,86,92,71,92,,,"AP Biology, AP Calculus AB, AP Computer Science Principles, AP English Language and Composition, AP English Literature and Composition, AP Environmental Science, AP Spanish Language and Culture, AP Statistics, AP U.S. Government and Politics, AP United States History, AP World History: Modern",Track/Cross Country,40.71136,-73.85669
Community Health Academy of the Heights,MANHATTAN,Washington Heights S.,703,79,79,54,90,67.0,429.0,"AP 2-D Art and Design, AP Drawing, AP English Language and Composition, AP English Literature and Composition, AP Environmental Science, AP Spanish Language and Culture",,40.83368,-73.94207
Channel View School for Research,QUEENS   ,Breezy Point-Rockaway Park,888,93,89,73,87,33.0,476.0,"AP Biology, AP English Language and Composition, AP English Literature and Composition, AP Environmental Science, AP Human Geography, AP Psychology, AP Seminar, AP Spanish Language and Culture, AP Statistics, AP United States History, AP World History: Modern",,40.58606,-73.82262
High School for Teaching and the Professions,BRONX    ,Van Cortlandt Village,447,81,82,41,84,85.0,222.0,"AP English Language and Composition, AP English Literature and Composition, AP Spanish Language and Culture, AP Statistics, AP United States History","Baseball/Softball, Basketball, Cheerleading, Swimming, Volleyball",40.87029,-73.8983
Cultural Academy for the Arts and Sciences,BROOKLYN ,East Flatbush,319,68,87,38,80,67.0,190.0,"AP Art History, AP Biology, AP English Language and Composition, AP English Literature and Composition, AP U.S. Government and Politics",,40.64865,-73.92217
Inwood Early College for Health and Information Technologies,MANHATTAN,Inwood,376,0,91,0,88,67.0,963.0,,,40.86605,-73.92483
Medgar Evers College Preparatory School,BROOKLYN ,Crown Heights South,1257,98,89,80,71,131.0,2057.0,"AP 2-D Art and Design, AP Biology, AP Calculus AB, AP Calculus BC, AP Chemistry, AP Chinese Language and Culture, AP Comparative Government and Politics, AP Computer Science A, AP Computer Science Principles, AP Drawing, AP English Language and Composition, AP English Literature and Composition, AP Environmental Science, AP Human Geography, AP Physics 1, AP Physics C: Electricity and Magnetism, AP Physics C: Mechanics, AP Research, AP Seminar, AP Spanish Language and Culture, AP Statistics, AP U.S. Government and Politics, AP United States History, AP World History: Modern",,40.66719,-73.95116
El Puente Academy for Peace and Justice,BROOKLYN ,Williamsburg,236,56,82,47,96,45.0,256.0,,Intramural Sports,40.70589,-73.95561
"Bronx High School of Science, The",BRONX    ,Van Cortlandt Village,2995,100,97,98,92,,,"AP Art History, AP Biology, AP Calculus AB, AP Calculus BC, AP Chemistry, AP Chinese Language and Culture, AP Comparative Government and Politics, AP Computer Science A, AP English Language and Composition, AP English Literature and Composition, AP Environmental Science, AP European History, AP French Language and Culture, AP Italian Language and Culture, AP Japanese Language and Culture, AP Latin, AP Macroeconomics, AP Microeconomics, AP Physics 1, AP Physics 2, AP Physics C: Electricity and Magnetism, AP Physics C: Mechanics, AP Psychology, AP Spanish Language and Culture, AP Statistics, AP U.S. Government and Politics, AP United States History, AP World History: Modern",,40.87758,-73.89104
Mott Hall Bronx High School,BRONX    ,Claremont-Bathgate,387,80,85,54,86,68.0,907.0,,,40.83924,-73.90131
High School of Telecommunication Arts and Technology,BROOKLYN ,Bay Ridge,1278,88,93,71,92,244.0,2862.0,"AP Biology, AP Calculus AB, AP Chemistry, AP Computer Science Principles, AP English Language and Composition, AP English Literature and Composition, AP Physics 1, AP Spanish Language and Culture, AP Statistics, AP United States History, AP World History: Modern",,40.63728,-74.02384
"Brooklyn School for Math and Research (B-SMARt), The",BROOKLYN ,Bushwick,269,89,88,68,84,89.0,508.0,"AP Biology, AP Calculus AB, AP English Language and Composition, AP Research, AP Seminar, AP Statistics, AP United States History",,40.69718,-73.91116
Chelsea Career and Technical Education High School,MANHATTAN,SoHo-Tribeca,430,75,86,57,91,37.0,785.0,"AP Calculus AB, AP English Language and Composition, AP English Literature and Composition, AP Environmental Science, AP Psychology, AP United States History",,40.7244,-74.00462
Bronx High School of Business,BRONX    ,E. Concourse-Concourse Village,284,69,82,28,68,85.0,304.0,AP Spanish Language and Culture,"Baseball/Softball, Basketball, Intramural Sports, Volleyball",40.84042,-73.91091
The Urban Assembly Academy of Government and Law,MANHATTAN,Chinatown,307,84,84,61,84,83.0,547.0,"AP English Language and Composition, AP English Literature and Composition, AP United States History","Basketball, Cheerleading",40.71734,-73.98959
Brooklyn School for Music & Theatre,BROOKLYN ,Crown Heights South,296,74,83,55,84,89.0,585.0,"AP English Literature and Composition, AP United States History",,40.67034,-73.96169
W. H. Maxwell Career and Technical Education High School,BROOKLYN ,East New York,407,68,76,33,81,99.0,153.0,"AP Chemistry, AP English Literature and Composition, AP Environmental Science",,40.67413,-73.89642
The Maxine Greene High School for Imaginative Inquiry,MANHATTAN,Lincoln Square,378,67,83,40,83,100.0,183.0,"AP Computer Science Principles, AP English Language and Composition, AP English Literature and Composition, AP Environmental Science, AP Spanish Language and Culture, AP U.S. Government and Politics, AP United States History","Baseball/Softball, Basketball, Soccer, Volleyball",40.77435,-73.98475
The College Academy,MANHATTAN,Washington Heights N.,460,54,85,38,67,65.0,280.0,"AP 2-D Art and Design, AP Biology, AP Calculus AB, AP Drawing, AP English Language and Composition, AP English Literature and Composition, AP Spanish Language and Culture, AP Spanish Literature and Culture, AP U.S. Government and Politics, AP United States History","Baseball, Softball, Football, Basketball, Soccer, Swimming, Volleyball, Wrestling, Indoor Track, Outdoor Track, Swimming",40.85585,-73.92712
Middle College High School at LaGuardia Community College,QUEENS   ,Hunters Point-Sunnyside,510,73,92,77,93,81.0,1429.0,,,40.74441,-73.93363
Bronx High School for Writing and Communication Arts,BRONX    ,Williamsbridge-Olinville,338,67,81,46,84,85.0,323.0,"AP English Language and Composition, AP English Literature and Composition, AP Environmental Science, AP United States History",,40.87595,-73.86196
Orchard Collegiate Academy,MANHATTAN,Lower East Side,171,66,87,36,93,75.0,165.0,"AP Biology, AP English Literature and Composition, AP United States History","Basketball, Soccer",40.71368,-73.98633
International School for Liberal Arts,BRONX    ,Van Cortlandt Village,523,77,91,47,88,64.0,376.0,"AP Biology, AP Calculus AB, AP Drawing, AP English Literature and Composition, AP Spanish Language and Culture, AP Spanish Literature and Culture",,40.87029,-73.8983
Juan Morel Campos Secondary School,BROOKLYN ,Williamsburg,534,66,87,23,80,21.0,75.0,"AP Biology, AP English Literature and Composition, AP Statistics","Soccer, Track/Cross Country",40.70362,-73.95314
Business Technology Early College High School (BTECH),QUEENS   ,Bellerose,422,0,90,0,75,90.0,579.0,"AP Computer Science Principles, AP English Literature and Composition, AP Environmental Science",,40.73306,-73.73875
Bronx High School for Law and Community Service,BRONX    ,Belmont,409,85,82,55,83,85.0,1137.0,"AP Calculus AB, AP English Language and Composition, AP English Literature and Composition, AP Spanish Language and Culture, AP United States History, AP World History: Modern","Basketball, Football",40.86004,-73.88826
Eleanor Roosevelt High School,MANHATTAN,Lenox Hill,541,100,96,90,98,104.0,5052.0,"AP Art History, AP Biology, AP Calculus AB, AP Calculus BC, AP Chemistry, AP Comparative Government and Politics, AP Computer Science Principles, AP English Language and Composition, AP English Literature and Composition, AP Macroeconomics, AP Music Theory, AP Physics C: Mechanics, AP Spanish Literature and Culture, AP Statistics, AP United States History, AP World History: Modern",,40.77018,-73.9536
Rockaway Park High School for Environmental Sustainability,QUEENS   ,Breezy Point-Rockaway Park,303,72,81,30,75,45.0,119.0,"AP Computer Science Principles, AP English Language and Composition, AP English Literature and Composition, AP Environmental Science, AP Psychology, AP United States History",,40.58606,-73.82262
World Academy for Total Community Health High School (WATCH),BROOKLYN ,East New York,262,67,81,52,81,56.0,117.0,"AP Biology, AP English Literature and Composition, AP Psychology",Cheerleading,40.66745,-73.89474
Gotham Professional Arts Academy,BROOKLYN ,Crown Heights North,168,55,78,50,76,67.0,222.0,,,40.67848,-73.9621
"H.E.R.O. High (Health, Education, and Research Occupations High School)",BRONX    ,Mott Haven-Port Morris,496,72,83,0,81,85.0,784.0,,,40.8108,-73.90701
Cobble Hill School of American Studies,BROOKLYN ,DUMBO-Downtown Brooklyn,584,79,80,55,84,83.0,509.0,"AP Biology, AP English Language and Composition, AP English Literature and Composition, AP U.S. Government and Politics, AP United States History",,40.68452,-73.99099
Murry Bergtraum High School for Business Careers,MANHATTAN,Chinatown,271,54,83,39,80,124.0,171.0,"AP Biology, AP Computer Science Principles, AP English Language and Composition, AP English Literature and Composition, AP United States History",,40.71144,-74.00085
Validus Preparatory Academy,BRONX    ,Claremont-Bathgate,372,64,79,45,90,64.0,468.0,"AP English Language and Composition, AP English Literature and Composition, AP Spanish Language and Culture, AP World History: Modern","Basketball, Dance, Intramural Sports, Soccer, Track/Cross Country, Volleyball",40.83924,-73.90131
"Science Skills Center High School for Science, Technology and the Creative Arts",BROOKLYN ,DUMBO-Downtown Brooklyn,562,84,93,68,76,45.0,418.0,"AP Biology, AP Computer Science A, AP Computer Science Principles, AP English Language and Composition, AP English Literature and Composition, AP Environmental Science, AP French Language and Culture, AP Human Geography, AP Music Theory, AP Psychology, AP Seminar, AP United States History",Cheerleading,40.69733,-73.98501
Edward R. Murrow High School,BROOKLYN ,Midwood,3789,80,91,64,86,562.0,5667.0,"AP Art History, AP Biology, AP Calculus AB, AP Calculus BC, AP Chemistry, AP Chinese Language and Culture, AP Computer Science A, AP Computer Science Principles, AP English Language and Composition, AP English Literature and Composition, AP French Language and Culture, AP Italian Language and Culture, AP Macroeconomics, AP Music Theory, AP Physics 1, AP Seminar, AP Spanish Language and Culture, AP Spanish Literature and Culture, AP Statistics, AP U.S. Government and Politics, AP United States History",,40.62052,-73.95928
"Young Women's Leadership School, Astoria (TYWLS)",QUEENS   ,Old Astoria,565,96,94,92,95,68.0,438.0,"AP 2-D Art and Design, AP Calculus AB, AP Computer Science Principles, AP English Language and Composition, AP English Literature and Composition, AP Environmental Science, AP Human Geography, AP Psychology, AP World History: Modern",,40.77121,-73.92459
Bronx River High School,BRONX    ,Schuylerville-Throgs Neck,405,73,83,0,77,85.0,609.0,"AP Computer Science Principles, AP United States History",,40.8407,-73.83854
Jacqueline Kennedy Onassis High School,MANHATTAN,Midtown,567,64,79,46,80,138.0,291.0,"AP English Language and Composition, AP English Literature and Composition, AP Environmental Science, AP Spanish Language and Culture, AP United States History",Boys Basketball and Table Tennis-Ping Pong,40.75772,-73.98307
Eagle Academy for Young Men II,BROOKLYN ,Ocean Hill,647,96,90,55,89,67.0,321.0,"AP Calculus AB, AP English Language and Composition, AP English Literature and Composition, AP Music Theory, AP United States History",,40.6778,-73.91584
Boys and Girls High School,BROOKLYN ,Bedford-Stuyvesant,428,63,85,25,81,25.0,257.0,"AP Calculus AB, AP Computer Science Principles, AP English Literature and Composition, AP Seminar, AP United States History",,40.67944,-73.9324
Queens Collegiate: A College Board School,QUEENS   ,Briarwood-Jamaica Hills,671,88,89,63,79,68.0,347.0,"AP Biology, AP Calculus AB, AP Chemistry, AP Computer Science Principles, AP English Language and Composition, AP Psychology, AP United States History, AP World History: Modern","Cheerleading, Cricket, Double Dutch, Golf, Stunt, Basketball, Bowling, Cross Country, Flag Football, Indoor Track, Outdoor Track, Soccer, Softball, Swimming, Volleyball, Baseball, Basketball, Fencing, Football, Lacrosse, Swimming, Tennis, Wrestling",40.71321,-73.79723
Academy for College Preparation and Career Exploration: A College Board School,BROOKLYN ,Flatbush,422,64,84,49,77,67.0,113.0,"AP Computer Science Principles, AP English Language and Composition, AP English Literature and Composition, AP Statistics",Dance,40.64978,-73.95855
Baccalaureate School for Global Education,QUEENS   ,Queensbridge-LIC,540,99,95,95,95,125.0,2447.0,,,40.75536,-73.92716
Flushing International High School,QUEENS   ,Murray Hill,442,65,91,65,87,75.0,308.0,AP Computer Science Principles,"Badminton,Baseball/Softball,Soccer,Volleyball, Table Tennis",40.75984,-73.82054
Bronx Compass High School,BRONX    ,Castle Hill-Clason Point,457,48,81,45,76,85.0,489.0,"AP English Literature and Composition, AP U.S. Government and Politics","Basketball, Intramural Sports, New York Road Runners (Runners Club), Soccer, Flag Football",40.82229,-73.85616
Urban Assembly New York Harbor School,MANHATTAN,Governors Island,534,77,91,57,96,71.0,531.0,"AP Calculus AB, AP English Literature and Composition, AP Environmental Science","Basketball, Soccer, Swimming",40.70169,-74.01163
Brooklyn Studio Secondary School,BROOKLYN ,Bensonhurst West,942,85,87,65,79,28.0,215.0,"AP Computer Science Principles, AP English Language and Composition, AP English Literature and Composition, AP United States History",,40.60487,-73.9944
Frank Sinatra School of the Arts High School,QUEENS   ,Astoria,831,93,93,95,96,26.0,336.0,"AP Art History, AP Biology, AP Calculus AB, AP English Language and Composition, AP English Literature and Composition, AP Environmental Science, AP U.S. Government and Politics, AP United States History, AP World History: Modern",,40.75653,-73.92512
New World High School,BRONX    ,Williamsbridge-Olinville,403,88,93,77,87,85.0,611.0,"AP Biology, AP English Language and Composition, AP Spanish Language and Culture, AP United States History","Baseball, Softball, Soccer, Basketball, Lacrosse, Bowling, Volleyball, Track",40.88783,-73.85269
International High School at Union Square,MANHATTAN,Gramercy,360,66,87,52,87,90.0,267.0,AP Spanish Language and Culture,"Basketball, Soccer, Baseball, Softball, Handball, Volleyball",40.73549,-73.98765
Knowledge and Power Preparatory Academy International High School (KAPPA),BRONX    ,Belmont,488,91,88,64,94,42.0,1647.0,AP Computer Science Principles,,40.86004,-73.88826
Civic Leadership Academy,QUEENS   ,Elmhurst,529,96,90,76,94,119.0,1139.0,"AP Biology, AP Calculus AB, AP English Language and Composition, AP English Literature and Composition, AP Environmental Science, AP United States History",Basketball,40.74372,-73.87064
Susan E. Wagner High School,STATEN IS,Todt Hill-Heartland Village,3284,86,90,73,83,21.0,771.0,"AP Biology, AP Calculus AB, AP Chemistry, AP English Language and Composition, AP English Literature and Composition, AP Environmental Science, AP Physics 1, AP Psychology, AP U.S. Government and Politics, AP United States History, AP World History: Modern","Basketball, Cheerleading, Dance",40.5968,-74.12422
New Directions Secondary School,BRONX    ,E. Concourse-Concourse Village,234,0,65,0,86,43.0,105.0,,Basketball,40.84042,-73.91091
PROGRESS High School for Professional Careers,BROOKLYN ,Bushwick,766,78,84,42,80,98.0,408.0,"AP 2-D Art and Design, AP Biology, AP Computer Science Principles, AP Drawing, AP English Literature and Composition, AP United States History",,40.71218,-73.93972
John Jay School for Law,BROOKLYN ,Park Slope-Gowanus,439,86,85,55,83,103.0,1453.0,"AP Computer Science Principles, AP English Language and Composition, AP English Literature and Composition, AP Statistics, AP United States History",Volleyball,40.66962,-73.97928
High School of American Studies at Lehman College,BRONX    ,Van Cortlandt Village,400,99,97,100,99,,,"AP Calculus AB, AP English Language and Composition, AP English Literature and Composition, AP Environmental Science, AP Spanish Language and Culture, AP United States History, AP World History: Modern",,40.87393,-73.89538
Academy for Careers in Television and Film (ACTV),QUEENS   ,Hunters Point-Sunnyside,565,98,93,81,90,113.0,1435.0,"AP Calculus AB, AP Computer Science Principles, AP English Language and Composition, AP English Literature and Composition, AP Human Geography, AP United States History",,40.74295,-73.95919
Quest to Learn,MANHATTAN,Chelsea-Union Sq,586,84,88,56,74,61.0,350.0,"AP Computer Science Principles, AP English Language and Composition, AP English Literature and Composition, AP United States History","Basketball, Cheerleading, Track/Cross Country",40.74286,-74.00213
World View High School,BRONX    ,Van Cortlandt Village,495,86,89,0,83,98.0,1108.0,"AP English Language and Composition, AP English Literature and Composition, AP Environmental Science, AP Seminar, AP Spanish Language and Culture, AP United States History",,40.88217,-73.88691
"Science, Technology and Research Early College High School at Erasmus (STAR)",BROOKLYN ,Flatbush,541,98,96,83,88,64.0,1211.0,"AP Biology, AP Calculus AB, AP English Language and Composition, AP English Literature and Composition, AP U.S. Government and Politics, AP United States History",,40.64978,-73.95855
Bronx Studio School for Writers and Artists,BRONX    ,Hunts Point,643,64,84,50,82,64.0,488.0,"AP Drawing, AP English Language and Composition, AP English Literature and Composition, AP Environmental Science, AP United States History","Basketball, Rugby, Volleyball, Soccer, Wrestling",40.82057,-73.89312
Benjamin Franklin High School for Finance & Information Technology,QUEENS   ,Cambria Heights,397,0,87,0,83,90.0,434.0,"AP English Language and Composition, AP English Literature and Composition, AP U.S. Government and Politics, AP United States History",,40.69781,-73.74572
Wings Academy,BRONX    ,East Tremont,491,53,81,35,74,118.0,524.0,"AP Computer Science Principles, AP English Language and Composition, AP English Literature and Composition, AP Spanish Language and Culture, AP U.S. Government and Politics, AP United States History",,40.84179,-73.87536
Multicultural High School,BROOKLYN ,Cypress Hills,243,62,90,49,92,67.0,108.0,"AP Chemistry, AP English Language and Composition, AP Environmental Science, AP Spanish Language and Culture, AP Spanish Literature and Culture",,40.69114,-73.86832
Bronx Bridges High School,BRONX    ,Castle Hill-Clason Point,341,58,81,42,78,64.0,180.0,"AP English Literature and Composition, AP Spanish Language and Culture, AP Spanish Literature and Culture, AP United States History, AP World History: Modern",,40.82229,-73.85616
Townsend Harris High School,QUEENS   ,Kew Gardens Hills,1141,99,97,100,96,279.0,6015.0,"AP Biology, AP Calculus AB, AP Calculus BC, AP Computer Science A, AP Computer Science Principles, AP English Language and Composition, AP English Literature and Composition, AP Japanese Language and Culture, AP Latin, AP Macroeconomics, AP Music Theory, AP Physics 1, AP Psychology, AP Research, AP Seminar, AP Spanish Literature and Culture, AP Statistics, AP U.S. Government and Politics, AP United States History, AP World History: Modern","Baseball/Softball, Soccer, Swimming",40.73438,-73.82139
Independence High School,MANHATTAN,Clinton,334,0,62,0,96,25.0,30.0,"AP Computer Science Principles, AP English Language and Composition, AP Spanish Language and Culture",,40.76834,-73.9891
Business of Sports School (BOSS),MANHATTAN,Clinton,426,82,84,63,88,103.0,1202.0,"AP English Language and Composition, AP Psychology, AP Spanish Language and Culture, AP United States History","Girls: Basketball, Flag Football, Soccer, Softball, Track and Field and Volleyball / Boys: Baseball, Basketball, Bowling, Handball, Outdoor Track, Soccer and Volleyball",40.76337,-73.9906
The Global Learning Collaborative,MANHATTAN,Upper West Side,436,76,86,60,88,90.0,871.0,"AP Calculus AB, AP Computer Science Principles, AP English Language and Composition, AP English Literature and Composition, AP Environmental Science, AP French Language and Culture, AP Macroeconomics, AP Spanish Language and Culture, AP U.S. Government and Politics, AP United States History, AP World History: Modern",,40.7858,-73.97461
The Williamsburg High School of Arts and Technology,BROOKLYN ,East Williamsburg,269,68,85,32,88,54.0,415.0,"AP Biology, AP Computer Science Principles, AP English Language and Composition, AP Environmental Science","Boys Basketball, Baseball, Coed Soccer, Cross Country, Volleyball, Wrestling",40.70994,-73.94364
Academy for Software Engineering (AFSE),MANHATTAN,Gramercy,460,85,90,82,87,90.0,2328.0,"AP Biology, AP Calculus AB, AP Computer Science Principles, AP English Language and Composition, AP Spanish Language and Culture, AP United States History",,40.73549,-73.98765
Pathways College Preparatory School: A College Board School,QUEENS   ,Hollis,583,66,91,57,71,,,"AP Calculus AB, AP Computer Science Principles, AP English Language and Composition, AP English Literature and Composition, AP Environmental Science, AP Macroeconomics, AP United States History",,40.70646,-73.75357
FDNY-Captain Vernon A. Richard High School for Fire and Life Safety,BROOKLYN ,East New York,333,71,80,32,77,89.0,284.0,"AP English Language and Composition, AP Statistics",,40.66745,-73.89474
Brooklyn Generation School,BROOKLYN ,Canarsie,195,75,91,51,77,62.0,153.0,,Cheerleading,40.63328,-73.91673
Comprehensive Model School Project M.S. 327,BRONX    ,West Concourse,734,83,88,72,89,71.0,614.0,"AP Biology, AP Chemistry, AP English Literature and Composition, AP European History, AP United States History",,40.84249,-73.91608
Francis Lewis High School,QUEENS   ,Auburndale,4557,89,92,75,89,67.0,4596.0,"AP Biology, AP Calculus AB, AP Calculus BC, AP Chemistry, AP Chinese Language and Culture, AP Computer Science A, AP English Language and Composition, AP English Literature and Composition, AP Environmental Science, AP Japanese Language and Culture, AP Latin, AP Macroeconomics, AP Physics 1, AP Physics C: Mechanics, AP Psychology, AP Spanish Language and Culture, AP Statistics, AP U.S. Government and Politics, AP United States History, AP World History: Modern",,40.74072,-73.79282
Williamsburg Preparatory School,BROOKLYN ,Williamsburg,676,95,90,74,85,136.0,1620.0,"AP Calculus AB, AP English Language and Composition, AP English Literature and Composition, AP Environmental Science, AP Human Geography, AP Spanish Language and Culture, AP United States History",Intramural Sports,40.71507,-73.95475
Expeditionary Learning School for Community Leaders,BROOKLYN ,Gravesend,347,84,87,70,88,74.0,374.0,AP Human Geography,,40.59429,-73.98577
Bronx Engineering and Technology Academy,BRONX    ,Spuyten Duyvil-Kingsbridge,399,77,82,53,79,85.0,903.0,"AP Calculus AB, AP Computer Science Principles, AP English Literature and Composition, AP United States History",,40.8771,-73.91225
University Heights Secondary School,BRONX    ,Melrose S.-Mott Haven N.,491,98,93,78,90,52.0,1255.0,"AP Biology, AP Calculus AB, AP English Language and Composition, AP Physics 1",,40.81824,-73.91102
Bushwick Leaders High School for Academic Excellence,BROOKLYN ,Bushwick,281,73,81,42,87,83.0,458.0,"AP Computer Science Principles, AP English Literature and Composition, AP Environmental Science, AP Spanish Language and Culture, AP United States History","Baseball/Softball, Basketball, Soccer, Volleyball",40.69505,-73.92813
Manhattan International High School,MANHATTAN,Lenox Hill,337,74,89,56,93,71.0,296.0,,Intramural Sports,40.76535,-73.96005
Forest Hills High School,QUEENS   ,Forest Hills,3783,88,90,73,84,25.0,592.0,"AP Art History, AP Biology, AP Calculus AB, AP Calculus BC, AP Chemistry, AP Chinese Language and Culture, AP Computer Science A, AP English Literature and Composition, AP Environmental Science, AP French Language and Culture, AP Macroeconomics, AP Physics C: Mechanics, AP Psychology, AP Spanish Language and Culture, AP Spanish Literature and Culture, AP Statistics, AP U.S. Government and Politics, AP United States History, AP World History: Modern",,40.7294,-73.84563
Bronx Center for Science and Mathematics,BRONX    ,Claremont-Bathgate,463,92,91,75,93,85.0,3030.0,"AP Calculus AB, AP Computer Science Principles, AP English Literature and Composition, AP Environmental Science, AP European History, AP Spanish Language and Culture, AP United States History",,40.83366,-73.90249
Bronx International High School,BRONX    ,Morrisania-Melrose,414,80,80,41,84,85.0,488.0,"AP Calculus AB, AP French Language and Culture, AP Spanish Language and Culture",,40.82764,-73.90447
"Metropolitan High School, The",BRONX    ,Longwood,411,50,76,43,68,118.0,134.0,"AP Calculus AB, AP English Literature and Composition, AP United States History",,40.82731,-73.89761
Queens Gateway to Health Sciences Secondary School,QUEENS   ,Flushing Heights-Hillcrest,690,96,95,92,82,90.0,1722.0,"AP Biology, AP Calculus AB, AP Chemistry, AP Computer Science A, AP English Language and Composition, AP English Literature and Composition, AP Environmental Science, AP Human Geography, AP Macroeconomics, AP Psychology, AP Seminar, AP Statistics, AP U.S. Government and Politics, AP United States History, AP World History: Modern","Basketball, Soccer",40.71883,-73.80649
Veritas Academy,QUEENS   ,Flushing,558,82,89,0,80,109.0,480.0,"AP Biology, AP Computer Science A, AP Computer Science Principles, AP English Language and Composition, AP English Literature and Composition, AP European History, AP Macroeconomics, AP Microeconomics, AP Psychology, AP Seminar, AP Spanish Language and Culture, AP Statistics, AP United States History","Badminton, Intramural Sports",40.76516,-73.82788
High School of Sports Management,BROOKLYN ,Gravesend,242,67,81,48,68,89.0,268.0,"AP Calculus AB, AP Computer Science Principles, AP United States History",,40.59429,-73.98577
Fort Hamilton High School,BROOKLYN ,Bay Ridge,4582,75,90,70,80,91.0,3148.0,"AP 2-D Art and Design, AP Biology, AP Calculus AB, AP Calculus BC, AP Chemistry, AP Chinese Language and Culture, AP Drawing, AP English Language and Composition, AP English Literature and Composition, AP Environmental Science, AP Human Geography, AP Physics 1, AP Physics 2, AP Physics C: Electricity and Magnetism, AP Physics C: Mechanics, AP Psychology, AP Spanish Language and Culture, AP Statistics, AP United States History, AP World History: Modern",,40.62789,-74.03998
Eagle Academy for Young Men of Harlem,MANHATTAN,Central Harlem North,318,0,89,0,78,78.0,263.0,,,40.81737,-73.94771
Baruch College Campus High School,MANHATTAN,Chelsea-Union Sq,460,100,97,94,95,92.0,4508.0,"AP Calculus AB, AP Comparative Government and Politics, AP English Language and Composition, AP English Literature and Composition, AP Physics 1, AP Spanish Language and Culture, AP United States History",,40.74193,-73.98652
Bronx Leadership Academy II High School,BRONX    ,E. Concourse-Concourse Village,513,73,84,64,83,85.0,1482.0,"AP Calculus AB, AP English Language and Composition, AP English Literature and Composition, AP Psychology, AP Spanish Language and Culture, AP United States History",Cheerleading,40.82231,-73.92382
High School for Public Service: Heroes of Tomorrow,BROOKLYN ,Prospect Lefferts Gardens,454,95,93,84,86,29.0,396.0,"AP English Language and Composition, AP English Literature and Composition, AP Physics 1, AP United States History, AP World History: Modern",,40.65889,-73.94245
The Academy of Urban Planning and Engineering,BROOKLYN ,Bushwick,197,79,89,34,82,93.0,312.0,"AP English Language and Composition, AP English Literature and Composition, AP Spanish Language and Culture, AP Spanish Literature and Culture, AP United States History",Boys Handball,40.69718,-73.91116
The Eagle Academy for Young Men of Staten Island,STATEN IS,Stapleton-Rosebank,253,0,0,0,77,64.0,59.0,,"Basketball, Football, Soccer",40.62426,-74.08266
Claremont International High School,BRONX    ,E. Concourse-Concourse Village,382,62,84,49,87,64.0,389.0,"AP Spanish Language and Culture, AP Spanish Literature and Culture","Soccer, Volleyball, Baseball, Table Tennis, Basketball, Track",40.84042,-73.91091
City College Academy of the Arts,MANHATTAN,Washington Heights N.,602,97,94,88,89,67.0,1546.0,AP Computer Science Principles,Intramural Sports,40.86079,-73.93067
Staten Island Technical High School,STATEN IS,New Dorp,1320,100,97,88,99,,,"AP Biology, AP Calculus AB, AP Calculus BC, AP Chemistry, AP Computer Science Principles, AP English Language and Composition, AP English Literature and Composition, AP Environmental Science, AP Macroeconomics, AP Microeconomics, AP Physics 1, AP Physics 2, AP Physics C: Mechanics, AP Psychology, AP Statistics, AP U.S. Government and Politics, AP United States History, AP World History: Modern",,40.56787,-74.11537
Bronxdale High School,BRONX    ,Bronxdale,453,76,84,50,85,88.0,1152.0,"AP English Language and Composition, AP English Literature and Composition, AP United States History",Cheerleading,40.85966,-73.861
Art and Design High School,MANHATTAN,E. Midtown,1447,85,90,66,92,44.0,296.0,"AP 2-D Art and Design, AP Art History, AP Biology, AP Calculus AB, AP Chemistry, AP Drawing, AP English Language and Composition, AP English Literature and Composition, AP U.S. Government and Politics, AP United States History, AP World History: Modern","Basketball, Intramural Sports, Volleyball",40.75923,-73.9672
Millennium Art Academy,BRONX    ,Castle Hill-Clason Point,432,72,85,44,83,84.0,501.0,"AP 2-D Art and Design, AP Chemistry, AP Computer Science Principles, AP English Language and Composition, AP English Literature and Composition",Track/Cross Country,40.82229,-73.85616
Union Square Academy for Health Sciences,MANHATTAN,Gramercy,398,87,88,79,81,62.0,871.0,"AP Biology, AP English Language and Composition, AP English Literature and Composition, AP European History, AP Spanish Language and Culture, AP Statistics, AP United States History, AP World History: Modern",,40.73549,-73.98765
Maspeth High School,QUEENS   ,Maspeth,1196,98,92,84,94,225.0,4312.0,"AP 2-D Art and Design, AP Biology, AP Calculus AB, AP Chemistry, AP Comparative Government and Politics, AP Drawing, AP English Language and Composition, AP English Literature and Composition, AP Environmental Science, AP Macroeconomics, AP Music Theory, AP Physics 1, AP Physics 2, AP Psychology, AP U.S. Government and Politics, AP United States History, AP World History: Modern","Baseball/Softball, Cheerleading, Volleyball",40.72993,-73.88748
Central Park East High School,MANHATTAN,East Harlem South,496,97,95,88,98,112.0,4488.0,"AP Calculus AB, AP Computer Science Principles, AP English Language and Composition, AP English Literature and Composition, AP Environmental Science, AP Statistics, AP United States History","Cheerleading, Running Club",40.79376,-73.94938
The Urban Assembly School for Applied Math and Science,BRONX    ,Claremont-Bathgate,616,86,86,76,81,64.0,910.0,"AP Calculus AB, AP English Language and Composition",,40.83924,-73.90131
New Dorp High School,STATEN IS,New Dorp,3045,80,87,56,81,54.0,291.0,"AP Biology, AP Calculus AB, AP Comparative Government and Politics, AP Computer Science A, AP Computer Science Principles, AP Drawing, AP English Literature and Composition, AP Psychology, AP Statistics, AP United States History, AP World History: Modern",,40.56939,-74.10773
High School of World Cultures,BRONX    ,West Farms-Bronx River,448,39,80,21,83,75.0,131.0,"AP Calculus AB, AP Environmental Science, AP Spanish Language and Culture, AP Spanish Literature and Culture, AP United States History",,40.8316,-73.87891
World Journalism Preparatory: A College Board School,QUEENS   ,Auburndale,567,97,93,85,77,45.0,414.0,"AP Computer Science Principles, AP English Language and Composition, AP English Literature and Composition, AP Environmental Science, AP Macroeconomics, AP World History: Modern",Intramural Sports,40.76513,-73.79008
John Bowne High School,QUEENS   ,Kew Gardens Hills,3601,73,86,55,78,83.0,601.0,"AP Biology, AP Calculus AB, AP Calculus BC, AP Chemistry, AP Chinese Language and Culture, AP Computer Science A, AP Computer Science Principles, AP English Language and Composition, AP English Literature and Composition, AP Environmental Science, AP Macroeconomics, AP Physics 1, AP Research, AP Seminar, AP Spanish Language and Culture, AP Statistics, AP U.S. Government and Politics, AP United States History, AP World History: Modern",,40.73813,-73.82494
Hillcrest High School,QUEENS   ,Briarwood-Jamaica Hills,3367,73,87,59,91,83.0,953.0,"AP Biology, AP Calculus AB, AP Computer Science Principles, AP English Language and Composition, AP English Literature and Composition, AP Environmental Science, AP French Language and Culture, AP Spanish Language and Culture, AP United States History, AP World History: Modern",,40.70944,-73.80165
The Michael J. Petrides School,STATEN IS,Todt Hill-Heartland Village,1313,93,92,59,82,65.0,535.0,"AP Biology, AP Calculus AB, AP Comparative Government and Politics, AP English Language and Composition, AP English Literature and Composition, AP World History: Modern",Cheerleading,40.60851,-74.10206
Fordham High School for the Arts,BRONX    ,Belmont,356,93,91,72,89,85.0,852.0,"AP 2-D Art and Design, AP Calculus AB, AP Drawing, AP English Language and Composition, AP English Literature and Composition, AP U.S. Government and Politics","Basketball, Swimming, Track/Cross Country",40.86004,-73.88826
High School for Civil Rights,BROOKLYN ,East New York,264,64,74,34,88,89.0,238.0,"AP Calculus AB, AP English Language and Composition, AP United States History",,40.66745,-73.89474
The Urban Assembly School for Global Commerce,MANHATTAN,Central Harlem North,241,75,85,0,86,67.0,208.0,AP Physics 1,"Basketball, Volleyball, Baseball, Softball, Flag football, Frisbee, Soccer, Track/Cross Country, Intramural games",40.80738,-73.93943
Bronx Early College Academy for Teaching & Learning,BRONX    ,E. Concourse-Concourse Village,522,82,85,72,85,64.0,1006.0,,,40.82869,-73.91766
Secondary School for Journalism,BROOKLYN ,Park Slope-Gowanus,215,65,84,61,76,103.0,173.0,"AP 2-D Art and Design, AP Environmental Science, AP United States History",,40.66962,-73.97928
"Queens High School of Teaching, Liberal Arts and the Sciences",QUEENS   ,Bellerose,1073,91,91,79,80,233.0,954.0,"AP Computer Science Principles, AP English Language and Composition, AP English Literature and Composition, AP Environmental Science, AP Human Geography, AP Psychology, AP Statistics, AP United States History",,40.74608,-73.72753
Harry S Truman High School,BRONX    ,Co-op City,2000,76,90,38,78,97.0,523.0,"AP Biology, AP Calculus AB, AP Computer Science Principles, AP European History, AP Spanish Language and Culture, AP Statistics, AP United States History, AP World History: Modern","Baseball/Softball, Cheerleading, Dance, Football, Swimming",40.87409,-73.8339
Women's Academy of Excellence,BRONX    ,Castle Hill-Clason Point,281,70,75,42,74,85.0,232.0,"AP English Literature and Composition, AP Statistics, AP United States History",,40.81483,-73.85657
"Metropolitan Soundview High School, The",BRONX    ,West Farms-Bronx River,429,63,79,53,77,85.0,543.0,"AP Calculus AB, AP English Language and Composition, AP English Literature and Composition, AP Spanish Language and Culture, AP United States History",Cheerleading,40.8316,-73.87891
Leon M. Goldstein High School for the Sciences,BROOKLYN ,Manhattan Beach,1011,94,96,75,90,206.0,4253.0,"AP Biology, AP Calculus AB, AP Calculus BC, AP Chemistry, AP Computer Science A, AP English Language and Composition, AP English Literature and Composition, AP Environmental Science, AP Human Geography, AP Macroeconomics, AP Microeconomics, AP Physics 1, AP Physics 2, AP Psychology, AP Spanish Language and Culture, AP Statistics, AP U.S. Government and Politics, AP United States History, AP World History: Modern",,40.58089,-73.93595
Cambria Heights Academy,QUEENS   ,Jamaica,353,86,86,75,87,68.0,427.0,"AP Computer Science Principles, AP English Language and Composition, AP English Literature and Composition, AP U.S. Government and Politics, AP United States History, AP World History: Modern",,40.71184,-73.77119
Columbia Secondary School,MANHATTAN,Morningside Heights,702,100,94,88,91,80.0,3225.0,"AP Biology, AP Computer Science Principles, AP English Language and Composition, AP English Literature and Composition, AP Spanish Language and Culture","Basketball, Cheerleading, Soccer, Track/Cross Country",40.81043,-73.9558
Brooklyn Collaborative Studies,BROOKLYN ,Carroll Gardens-Red Hook,681,90,84,74,86,74.0,456.0,,,40.68007,-74.00137
Rockaway Collegiate High School,QUEENS   ,Breezy Point-Rockaway Park,329,66,82,39,76,90.0,172.0,"AP Calculus AB, AP English Language and Composition, AP United States History",,40.58606,-73.82262
Discovery High School,BRONX    ,Van Cortlandt Village,456,80,88,46,84,85.0,511.0,"AP English Language and Composition, AP Environmental Science, AP European History, AP Spanish Language and Culture, AP United States History",,40.87029,-73.8983
"Brooklyn School for Social Justice, The",BROOKLYN ,Bushwick,364,69,78,48,74,95.0,254.0,"AP Drawing, AP English Literature and Composition, AP Environmental Science, AP Spanish Language and Culture","Soccer, Swimming",40.69718,-73.91116
George Washington Carver High School for the Sciences,QUEENS   ,Springfield Gardens North,468,78,88,66,82,45.0,265.0,"AP Computer Science Principles, AP English Language and Composition, AP English Literature and Composition, AP Environmental Science, AP Macroeconomics, AP Statistics, AP United States History",,40.66823,-73.75683
Brooklyn Lab School,BROOKLYN ,Cypress Hills,384,63,79,42,77,124.0,402.0,"AP Calculus AB, AP Computer Science Principles, AP English Literature and Composition, AP United States History",,40.69114,-73.86832
"High School for Construction Trades, Engineering and Architecture",QUEENS   ,Richmond Hill,1027,98,94,82,88,70.0,1131.0,"AP Biology, AP Calculus AB, AP Calculus BC, AP Computer Science Principles, AP English Language and Composition, AP English Literature and Composition, AP European History, AP Physics 1, AP Physics C: Mechanics, AP Statistics, AP U.S. Government and Politics, AP United States History",,40.68959,-73.84071
"High School for Mathematics, Science and Engineering at City College (HSMSE)",MANHATTAN,Manhattanville,500,99,96,99,97,,,"AP Calculus AB, AP Calculus BC, AP Chemistry, AP Computer Science A, AP English Literature and Composition, AP Environmental Science, AP German Language and Culture, AP Music Theory, AP Statistics, AP World History: Modern",,40.82074,-73.94909
Abraham Lincoln High School,BROOKLYN ,West Brighton,1998,71,86,45,84,107.0,583.0,"AP Calculus AB, AP Calculus BC, AP Computer Science Principles, AP English Language and Composition, AP English Literature and Composition, AP Psychology, AP Seminar, AP Spanish Language and Culture, AP World History: Modern",,40.58168,-73.9673
High School for Violin and Dance,BRONX    ,Morrisania-Melrose,264,67,71,43,75,85.0,236.0,"AP Calculus AB, AP English Language and Composition, AP English Literature and Composition, AP United States History","Basketball, Volleyball",40.82764,-73.90447
The Facing History School,MANHATTAN,Clinton,382,76,82,55,92,90.0,266.0,"AP English Literature and Composition, AP Statistics",,40.76525,-73.9931
Westchester Square Academy,BRONX    ,Schuylerville-Throgs Neck,609,74,87,60,68,64.0,767.0,"AP 2-D Art and Design, AP English Language and Composition, AP English Literature and Composition, AP Spanish Language and Culture, AP Spanish Literature and Culture, AP U.S. Government and Politics, AP United States History",Track/Cross Country,40.8407,-73.83854
N.Y.C. Lab School for Collaborative Studies,MANHATTAN,Chelsea-Union Sq,498,97,94,87,94,90.0,2959.0,"AP Calculus AB, AP Computer Science Principles, AP English Language and Composition, AP English Literature and Composition, AP Environmental Science, AP Psychology, AP U.S. Government and Politics, AP United States History",,40.74212,-74.00219
Park East High School,MANHATTAN,East Harlem South,406,96,94,69,95,76.0,2893.0,"AP Calculus AB, AP English Language and Composition, AP English Literature and Composition, AP Environmental Science, AP Spanish Language and Culture, AP United States History","Basketball, Cheerleading, Volleyball",40.79054,-73.94435
47 The American Sign Language and English Secondary School,MANHATTAN,Gramercy,165,91,86,62,92,57.0,353.0,"AP Biology, AP English Language and Composition, AP English Literature and Composition, AP Environmental Science, AP Human Geography",,40.73854,-73.98245
Alfred E. Smith Career and Technical Education High School,BRONX    ,Melrose S.-Mott Haven N.,463,80,84,37,73,82.0,407.0,"AP 2-D Art and Design, AP English Language and Composition, AP English Literature and Composition, AP Environmental Science, AP Statistics",,40.81823,-73.91986
"Brooklyn Latin School, The",BROOKLYN ,East Williamsburg,678,99,93,85,89,,,,,40.70994,-73.94364
School for Excellence,BRONX    ,Morrisania-Melrose,375,58,66,35,79,85.0,218.0,AP United States History,"Varsity/Junior Varsity Boys Basketball, Girls Basketball, Girls Softball, Varsity/Junior Varsity Baseball, Intramural Girls Flag Football, Boys Soccer, Girls Soccer, Girls Volleyball",40.82764,-73.90447
Brooklyn High School for Law and Technology,BROOKLYN ,Bedford-Stuyvesant,594,74,85,49,74,63.0,494.0,"AP Chemistry, AP English Language and Composition, AP English Literature and Composition, AP Spanish Language and Culture, AP Statistics, AP United States History","Baseball/Softball, Basketball, Cheerleading, Dance, Football, Intramural Sports, Soccer, Track/Cross Country, Volleyball, Flag Football",40.68883,-73.9209
International High School at Prospect Heights,BROOKLYN ,Crown Heights South,417,63,88,53,86,89.0,158.0,,"Badminton, Baseball, Basketball, Cricket, Cross Country, Indoor Track, Outdoor Track, , Soccer, Softball, Swimming, Volleyball",40.67034,-73.96169
Repertory Company High School for Theatre Arts,MANHATTAN,Midtown,242,96,91,87,85,50.0,306.0,"AP Biology, AP English Language and Composition, AP English Literature and Composition, AP Environmental Science, AP Psychology, AP U.S. Government and Politics, AP United States History",Repertory students have access to all PSAL teams offered at the High School of Graphic Communication Arts campus,40.75584,-73.98438
Thurgood Marshall Academy for Learning and Social Change,MANHATTAN,Central Harlem North,547,81,91,60,83,90.0,430.0,AP English Language and Composition,Basketball,40.81544,-73.94406
Brooklyn Frontiers High School,BROOKLYN ,DUMBO-Downtown Brooklyn,168,0,76,0,79,33.0,31.0,"AP Psychology, AP Statistics",Basketball,40.69014,-73.98913
West End Secondary School,MANHATTAN,Lincoln Square,339,0,0,0,94,75.0,1010.0,,,40.772,-73.98747
Bard High School Early College Queens,QUEENS   ,Hunters Point-Sunnyside,623,99,97,94,98,134.0,4274.0,,,40.74509,-73.93663
Academy of Hospitality and Tourism,BROOKLYN ,Flatbush,208,53,82,30,79,89.0,178.0,AP English Language and Composition,"Basketball, Soccer",40.64978,-73.95855
School for Classics High School,BROOKLYN ,East New York,287,73,84,28,77,89.0,151.0,"AP Biology, AP English Language and Composition, AP Psychology, AP Statistics, AP U.S. Government and Politics","Yoga, Volleyball, Girls and Boys Basketball",40.67072,-73.8742
Institute for Collaborative Education (ICE),MANHATTAN,Gramercy,492,87,92,75,91,45.0,575.0,,,40.73244,-73.98303
"Queens High School for Information, Research, and Technology",QUEENS   ,Far Rockaway-Bayswater,443,81,84,31,90,45.0,301.0,"AP Calculus AB, AP Computer Science Principles, AP English Literature and Composition, AP Psychology, AP United States History",,40.60201,-73.76279
Explorations Academy,BRONX    ,Crotona Park East,351,66,81,37,86,85.0,270.0,"AP Biology, AP Computer Science Principles, AP English Language and Composition, AP English Literature and Composition, AP Spanish Language and Culture","Basketball, Football, Intramural Sports, Soccer, Volleyball",40.8359,-73.89045
Fiorello H. LaGuardia High School of Music & Art and Performing Arts,MANHATTAN,Lincoln Square,2809,98,95,82,94,,,"AP 2-D Art and Design, AP Art History, AP Biology, AP Calculus AB, AP Calculus BC, AP Chemistry, AP Comparative Government and Politics, AP Computer Science Principles, AP English Language and Composition, AP English Literature and Composition, AP Environmental Science, AP French Language and Culture, AP Human Geography, AP Italian Language and Culture, AP Japanese Language and Culture, AP Music Theory, AP Physics 1, AP Psychology, AP Spanish Language and Culture, AP Statistics, AP U.S. Government and Politics, AP United States History, AP World History: Modern",,40.77362,-73.98527
Digital Arts and Cinema Technology High School,BROOKLYN ,DUMBO-Downtown Brooklyn,206,69,89,71,78,74.0,623.0,"AP English Language and Composition, AP English Literature and Composition, AP Statistics, AP United States History","Basketball, Cheerleading, Soccer",40.68541,-73.99335
Professional Pathways High School,BROOKLYN ,Sheepshead Bay,205,0,56,0,98,25.0,4.0,,,40.59412,-73.93769
Life Academy High School for Film and Music,BROOKLYN ,Gravesend,303,89,88,60,82,67.0,387.0,"AP Calculus AB, AP English Literature and Composition, AP Environmental Science, AP Psychology, AP United States History, AP World History: Modern",,40.59429,-73.98577
"Robert F. Wagner, Jr. Secondary School for Arts and Technology",QUEENS   ,Hunters Point-Sunnyside,665,93,92,82,93,87.0,1047.0,"AP Calculus AB, AP Computer Science Principles, AP English Literature and Composition, AP Environmental Science, AP Human Geography, AP Spanish Literature and Culture, AP United States History",,40.74283,-73.93678
Bronx Academy of Health Careers,BRONX    ,Williamsbridge-Olinville,395,81,88,59,64,85.0,642.0,"AP Biology, AP English Language and Composition, AP English Literature and Composition, AP Environmental Science, AP Psychology, AP Spanish Language and Culture","Baseball/Softball, Basketball, Football, Soccer, Swimming, Track/Cross Country, Volleyball",40.87595,-73.86196
Eximius College Preparatory Academy: A College Board School,BRONX    ,Claremont-Bathgate,432,89,85,57,83,85.0,1334.0,"AP English Language and Composition, AP Microeconomics, AP Spanish Language and Culture, AP United States History, AP World History: Modern","Basketball, Dance, Football, Volleyball",40.83366,-73.90249
Frank McCourt High School,MANHATTAN,Upper West Side,411,97,93,78,85,90.0,1345.0,,Intramural Sports,40.7858,-73.97461
Brooklyn Academy of Science and the Environment (BASE),BROOKLYN ,Crown Heights South,373,74,90,57,84,89.0,362.0,"AP Art History, AP Biology, AP Calculus AB, AP Computer Science Principles, AP English Language and Composition, AP English Literature and Composition, AP United States History",Cheerleading,40.67034,-73.96169
Hudson High School of Learning Technologies,MANHATTAN,Chelsea-Union Sq,476,64,79,54,83,100.0,830.0,"AP Computer Science A, AP Computer Science Principles, AP English Language and Composition, AP English Literature and Composition, AP Psychology, AP Research, AP Seminar, AP Statistics, AP United States History",,40.74286,-74.00213
Scholars' Academy,QUEENS   ,Breezy Point-Rockaway Park,1376,100,95,98,95,129.0,1715.0,"AP Art History, AP Biology, AP Calculus AB, AP Calculus BC, AP Chemistry, AP Computer Science A, AP English Language and Composition, AP English Literature and Composition, AP Music Theory, AP Physics 1, AP Physics C: Mechanics, AP Psychology, AP United States History, AP World History: Modern","Cheerleading, Dance",40.5841,-73.82571
Bronx Aerospace High School,BRONX    ,Williamsbridge-Olinville,346,68,82,46,67,148.0,342.0,"AP Computer Science Principles, AP English Language and Composition, AP Spanish Language and Culture, AP United States History",,40.87595,-73.86196
Queens High School for the Sciences at York College,QUEENS   ,Jamaica,473,100,97,91,93,,,"AP Biology, AP Calculus AB, AP Calculus BC, AP Chemistry, AP Chinese Language and Culture, AP English Language and Composition, AP English Literature and Composition, AP Environmental Science, AP Macroeconomics, AP Music Theory, AP Physics 1, AP Physics C: Mechanics, AP Psychology, AP Statistics, AP United States History, AP World History: Modern",,40.70104,-73.79815
The High School for Global Citizenship,BROOKLYN ,Crown Heights South,197,61,90,33,75,19.0,103.0,"AP English Literature and Composition, AP Seminar, AP World History: Modern","Badminton, Basketball, Cheerleading, Dance, Soccer, Swimming, Track/Cross Country",40.67034,-73.96169
Academy for Health Careers,BROOKLYN ,Crown Heights North,359,83,83,56,87,89.0,435.0,AP English Language and Composition,Cheerleading,40.67561,-73.93884
Victory Collegiate High School,BROOKLYN ,Canarsie,401,76,88,53,72,116.0,255.0,"AP Seminar, AP Statistics","Basketball, Bowling, Track & Field",40.63328,-73.91673
Academy for Young Writers,BROOKLYN ,East New York,546,89,88,73,87,55.0,512.0,"AP Biology, AP Computer Science A, AP English Language and Composition, AP English Literature and Composition, AP United States History","Badminton, Baseball/Softball, Basketball, Cheerleading, Football, Intramural Sports, Soccer",40.65743,-73.87473
Millennium Brooklyn High School,BROOKLYN ,Park Slope-Gowanus,672,99,94,88,96,131.0,5062.0,"AP Biology, AP Calculus AB, AP Chemistry, AP Computer Science Principles, AP English Language and Composition, AP English Literature and Composition, AP Environmental Science, AP French Language and Culture, AP Psychology, AP Spanish Language and Culture, AP United States History",,40.66962,-73.97928
Port Richmond High School,STATEN IS,Port Richmond,1549,67,86,36,81,54.0,215.0,"AP Biology, AP Calculus AB, AP Computer Science Principles, AP English Language and Composition, AP English Literature and Composition, AP Environmental Science, AP Psychology, AP Spanish Language and Culture, AP U.S. Government and Politics, AP United States History, AP World History: Modern",Cheerleading,40.63457,-74.14181
Frederick Douglass Academy VII High School,BROOKLYN ,Brownsville,157,66,82,37,85,89.0,207.0,"AP Chemistry, AP English Language and Composition, AP English Literature and Composition, AP United States History",,40.66587,-73.9117
The Boerum Hill School for International Studies,BROOKLYN ,DUMBO-Downtown Brooklyn,632,78,80,56,85,62.0,239.0,"AP English Language and Composition, AP English Literature and Composition","Baseball/Softball, Football, Soccer, Track/Cross Country",40.68541,-73.99335
High School for Excellence and Innovation,MANHATTAN,Inwood,201,0,68,0,97,50.0,35.0,"AP Art History, AP English Language and Composition, AP Spanish Language and Culture, AP Statistics, AP United States History","Badminton, Baseball/Softball, Basketball, Volleyball",40.86605,-73.92483
Essex Street Academy,MANHATTAN,Chinatown,340,83,87,74,96,67.0,1416.0,,,40.71734,-73.98959
Mott Hall High School,MANHATTAN,Central Harlem North,297,66,80,36,74,90.0,359.0,"AP Chemistry, AP English Language and Composition",,40.81737,-73.94771
School of the Future High School,MANHATTAN,Gramercy,750,99,94,79,90,90.0,1567.0,"AP Computer Science Principles, AP English Language and Composition, AP English Literature and Composition, AP Environmental Science",,40.73895,-73.98547
Esperanza Preparatory Academy,MANHATTAN,East Harlem South,559,73,86,41,84,65.0,255.0,"AP 2-D Art and Design, AP Calculus AB, AP Drawing, AP English Language and Composition, AP Spanish Language and Culture, AP Spanish Literature and Culture",,40.79307,-73.9423
International Community High School,BRONX    ,Mott Haven-Port Morris,436,62,89,42,93,64.0,216.0,,"Baseball/Softball, Volleyball",40.81004,-73.91779
Life Sciences Secondary School,MANHATTAN,Yorkville,574,60,80,47,66,128.0,291.0,"AP Biology, AP English Literature and Composition, AP Psychology, AP Statistics, AP World History: Modern","Girls Soccer, Softball and Volleyball; Boys Baseball, Basketball and Soccer",40.78362,-73.94563
Curtis High School,STATEN IS,New Brighton-St. George,2587,73,85,48,75,68.0,255.0,"AP Calculus AB, AP Computer Science Principles, AP English Language and Composition, AP English Literature and Composition, AP Environmental Science, AP European History, AP Spanish Language and Culture, AP U.S. Government and Politics, AP United States History, AP World History: Modern","Cheerleading, Dance",40.64473,-74.08122
Academy for Conservation and the Environment,BROOKLYN ,Canarsie,285,81,82,48,77,50.0,211.0,"AP Calculus AB, AP Computer Science A, AP English Language and Composition, AP English Literature and Composition, AP United States History","Basketball, Cheerleading",40.63328,-73.91673
A. Philip Randolph Campus High School,MANHATTAN,Manhattanville,1375,73,84,53,87,86.0,804.0,"AP Biology, AP Calculus AB, AP English Language and Composition, AP English Literature and Composition, AP Macroeconomics, AP Spanish Language and Culture, AP United States History",,40.81818,-73.95035
Bayside High School,QUEENS   ,Bayside-Bayside Hills,3024,97,93,84,79,58.0,1057.0,"AP 2-D Art and Design, AP Art History, AP Biology, AP Calculus AB, AP Calculus BC, AP Chemistry, AP Chinese Language and Culture, AP Comparative Government and Politics, AP Computer Science A, AP Computer Science Principles, AP Drawing, AP English Language and Composition, AP English Literature and Composition, AP Environmental Science, AP European History, AP French Language and Culture, AP Human Geography, AP Latin, AP Microeconomics, AP Music Theory, AP Physics 1, AP Physics C: Electricity and Magnetism, AP Physics C: Mechanics, AP Psychology, AP Spanish Language and Culture, AP Statistics, AP U.S. Government and Politics, AP United States History, AP World History: Modern","Badminton, Bowling, Cheerleading, Cross-Fit, Handball, Intramurals, Table Tennis",40.77175,-73.78029
Leadership and Public Service High School,MANHATTAN,Lower Manhattan,523,70,83,44,86,164.0,250.0,"AP Art History, AP Computer Science Principles, AP English Language and Composition, AP English Literature and Composition, AP Environmental Science, AP Spanish Language and Culture, AP Spanish Literature and Culture, AP Statistics, AP U.S. Government and Politics, AP United States History, AP World History: Modern",,40.70873,-74.01233
High School for Energy and Technology,BRONX    ,Belmont,410,63,83,48,64,85.0,681.0,"AP English Language and Composition, AP English Literature and Composition, AP Spanish Language and Culture, AP Statistics","Baseball/Softball, Basketball, Volleyball",40.85569,-73.88271
Bronx Health Sciences High School,BRONX    ,Co-op City,315,93,93,87,88,85.0,1155.0,"AP Biology, AP Calculus AB, AP English Language and Composition, AP English Literature and Composition, AP United States History",,40.87409,-73.8339
Kingsborough Early College School,BROOKLYN ,Gravesend,657,98,91,89,79,89.0,1415.0,,,40.59429,-73.98577
The Urban Assembly School for Emergency Management,MANHATTAN,Chinatown,281,74,83,0,86,90.0,198.0,"AP Calculus AB, AP English Language and Composition, AP English Literature and Composition, AP Environmental Science, AP United States History","Baseball, Softball, Basketball, Track, Cross Country, Volleyball, Lacrosse, Wrestling",40.71144,-74.00085
Academy for Environmental Leadership,BROOKLYN ,Bushwick,272,70,80,44,80,89.0,194.0,"AP Drawing, AP English Language and Composition, AP English Literature and Composition, AP U.S. Government and Politics, AP United States History","Baseball/Softball, Basketball, Soccer, Swimming",40.69718,-73.91116
High School for Health Professions and Human Services,MANHATTAN,Gramercy,1819,94,92,72,93,155.0,1790.0,"AP Art History, AP Biology, AP Calculus AB, AP Chemistry, AP Computer Science Principles, AP English Language and Composition, AP English Literature and Composition, AP Human Geography, AP Spanish Language and Culture, AP U.S. Government and Politics, AP United States History, AP World History: Modern",,40.73244,-73.98303
Nelson Mandela High School,BROOKLYN ,Bedford-Stuyvesant,273,0,78,0,81,89.0,165.0,"AP Biology, AP English Literature and Composition, AP U.S. Government and Politics",,40.67944,-73.9324
Robert F. Kennedy Community High School,QUEENS   ,Kew Gardens Hills,756,81,90,67,82,125.0,372.0,"AP 2-D Art and Design, AP Calculus AB, AP Chinese Language and Culture, AP Drawing, AP English Language and Composition, AP Psychology, AP Spanish Language and Culture","Badminton, Track/Cross Country",40.7256,-73.81069
Performing Arts and Technology High School,BROOKLYN ,East New York,450,54,86,41,76,21.0,214.0,"AP Biology, AP Calculus AB, AP Computer Science Principles, AP English Language and Composition, AP English Literature and Composition, AP Spanish Language and Culture, AP United States History",,40.66745,-73.89474
"Bronx School for Law, Government and Justice",BRONX    ,E. Concourse-Concourse Village,771,85,91,71,81,27.0,1135.0,"AP Drawing, AP English Language and Composition, AP Spanish Language and Culture, AP Statistics, AP U.S. Government and Politics, AP United States History","Baseball/Softball, Basketball, Soccer, Track/Cross Country",40.8276,-73.91868
Ralph R. McKee Career and Technical Education High School,STATEN IS,New Brighton-St. George,792,77,87,30,77,27.0,126.0,"AP Computer Science Principles, AP English Language and Composition, AP United States History",,40.64279,-74.07872
Academy for Language and Technology,BRONX    ,University Heights-Morris Heights,323,96,89,74,91,25.0,531.0,"AP Spanish Language and Culture, AP U.S. Government and Politics",,40.84953,-73.91607
Dr. Susan S. McKinney Secondary School of the Arts,BROOKLYN ,Fort Greene,370,69,76,45,85,19.0,110.0,"AP Computer Science Principles, AP English Language and Composition, AP English Literature and Composition, AP Environmental Science, AP Spanish Language and Culture, AP United States History",,40.69632,-73.97578
University Neighborhood High School,MANHATTAN,Lower East Side,465,90,93,70,92,66.0,212.0,"AP 2-D Art and Design, AP Calculus AB, AP Chinese Language and Culture, AP Computer Science Principles, AP Spanish Language and Culture","Baseball/Softball, Basketball, Football, Soccer",40.71239,-73.98449
High School for Medical Professions,BROOKLYN ,Canarsie,424,93,91,69,87,89.0,822.0,"AP Biology, AP English Literature and Composition, AP Environmental Science, AP Psychology, AP Statistics, AP World History: Modern",Cheerleading,40.64147,-73.89825
